{"pois": [{"id": 1046, "client_id": "CLIENT_001", "poi_name": "A N ENTERPRISES, GURUGRAM", "latitude": 28.4808629, "longitude": 77.0848883, "radius_meters": 1500, "linked_vehicle": null, "linked_gps_time": null, "linked_distance_m": null, "city": "Gurugram", "address": "GODOWN NO-1# 74/18# UNNAMED ROAD VPO DAULTABAD# SECTOR 103", "pin_code": "122006", "state": "Gurugram", "type": "other", "poi_category": "general"}, {"id": 1047, "client_id": "CLIENT_001", "poi_name": "A TO Z ELECTRONICS, KANPUR", "latitude": 26.4637073, "longitude": 80.2467187, "radius_meters": 1500, "linked_vehicle": null, "linked_gps_time": null, "linked_distance_m": null, "city": "Kanpur", "address": "144-A VIKAS NAGAR", "pin_code": "208002", "state": "KANPUR", "type": "other", "poi_category": "general"}, {"id": 1048, "client_id": "CLIENT_001", "poi_name": "A TO Z SOLUTIONS, Hissar", "latitude": 29.1155934, "longitude": 75.1835578, "radius_meters": 1500, "linked_vehicle": null, "linked_gps_time": null, "linked_distance_m": null, "city": "Hisar", "address": "A TO Z SOLUTIONS SIRSA", "pin_code": "125055", "state": "Hissar", "type": "tertiary", "poi_category": "general"}, {"id": 1049, "client_id": "CLIENT_001", "poi_name": "A-ONE TELE SHOP, YAMUNANAGAR", "latitude": 30.1231349, "longitude": 77.286329, "radius_meters": 1500, "linked_vehicle": null, "linked_gps_time": null, "linked_distance_m": null, "city": "Yamunanagar", "address": "BURIA CHOWK DWARKA DASS MARKET", "pin_code": "135003", "state": "Yamunanagar", "type": "other", "poi_category": "general"}, {"id": 1050, "client_id": "CLIENT_001", "poi_name": "AAZARAA TRADERS, Karnal", "latitude": 29.6936786, "longitude": 77.0115174, "radius_meters": 1500, "linked_vehicle": null, "linked_gps_time": null, "linked_distance_m": null, "city": "Karnal", "address": "OPP AIRPORT KARNAL", "pin_code": "132023", "state": "Karnal", "type": "other", "poi_category": "general"}, {"id": 1051, "client_id": "CLIENT_001", "poi_name": "AGARWAL TRADERS, Karnal", "latitude": 29.5182563, "longitude": 76.9732582, "radius_meters": 1500, "linked_vehicle": null, "linked_gps_time": null, "linked_distance_m": null, "city": "Karnal", "address": "Near tota Ram Dharamshala", "pin_code": "132103", "state": "Karnal", "type": "other", "poi_category": "general"}, {"id": 1052, "client_id": "CLIENT_001", "poi_name": "AMAFLIP INDIA, PANCHKULA", "latitude": 30.669791, "longitude": 76.8868604, "radius_meters": 1500, "linked_vehicle": null, "linked_gps_time": null, "linked_distance_m": null, "city": "Panchkula", "address": "SCO - 384 SECTOR 20", "pin_code": "134116", "state": "PANCHKULA", "type": "other", "poi_category": "general"}, {"id": 1053, "client_id": "CLIENT_001", "poi_name": "ANKUR TRADERS, BHIWANI", "latitude": 28.7975639, "longitude": 76.1455776, "radius_meters": 1500, "linked_vehicle": null, "linked_gps_time": null, "linked_distance_m": null, "city": "Bhiwani", "address": "OPPOSITE JOGI WALA MANDIR NEAR PUNJABI NATIONAL BANK", "pin_code": "127021", "state": "Bhiwani", "type": "other", "poi_category": "general"}, {"id": 1054, "client_id": "CLIENT_001", "poi_name": "ANURAG RADIOS, KURUKSHETRA", "latitude": 29.9693747, "longitude": 76.8482787, "radius_meters": 1500, "linked_vehicle": null, "linked_gps_time": null, "linked_distance_m": null, "city": "Kurukshetra", "address": "NEAR NEELKANTH PETROL PUMP", "pin_code": "136128", "state": "KURUKSHETRA", "type": "other", "poi_category": "general"}, {"id": 1055, "client_id": "CLIENT_001", "poi_name": "ARDH SAINIK FOUNDATION, Karnal", "latitude": 29.5182563, "longitude": 76.9732582, "radius_meters": 1500, "linked_vehicle": null, "linked_gps_time": null, "linked_distance_m": null, "city": "Karnal", "address": "ASSANDH ROAD NEAR DAHIYA HOSPITAL", "pin_code": "132103", "state": "Karnal", "type": "other", "poi_category": "general"}, {"id": 1056, "client_id": "CLIENT_001", "poi_name": "ARUN ELECTRONICS, Yamuna nagar", "latitude": 19.1481254, "longitude": 72.827599, "radius_meters": 1500, "linked_vehicle": null, "linked_gps_time": null, "linked_distance_m": null, "city": "Yamunanagar", "address": "KHASRA NO.717 OPP.KAPOOR PROPERTY DEALERS", "pin_code": "135001", "state": "Yamuna nagar", "type": "other", "poi_category": "general"}, {"id": 1057, "client_id": "CLIENT_001", "poi_name": "ARUN ELECTRONICS-CSD, YAMUNANAGAR", "latitude": 30.1231349, "longitude": 77.286329, "radius_meters": 1500, "linked_vehicle": null, "linked_gps_time": null, "linked_distance_m": null, "city": "Yamunanagar", "address": "NEAR SHIVAJI MARKET# PYARA CHOWK YAMUNA NAGAR# HARYANA", "pin_code": "135001", "state": "Yamunanagar", "type": "other", "poi_category": "general"}, {"id": 1058, "client_id": "CLIENT_001", "poi_name": "ASHANA ENTERPRISES, Gurgaon", "latitude": 28.4890874, "longitude": 77.0111572, "radius_meters": 1500, "linked_vehicle": null, "linked_gps_time": null, "linked_distance_m": null, "city": "Gurugram", "address": "Plot No - 447 Udyog Vihar Phase - 3 Gurgaon", "pin_code": "122001", "state": "Gurgaon", "type": "other", "poi_category": "general"}, {"id": 1059, "client_id": "CLIENT_001", "poi_name": "ASHANA ENTERPRISES-HARYANA, Gurgaon", "latitude": 28.4808629, "longitude": 77.0848883, "radius_meters": 1500, "linked_vehicle": null, "linked_gps_time": null, "linked_distance_m": null, "city": "Gurugram", "address": "Plot No - 447 Udyog Vihar Phase - 3 Gurgaon", "pin_code": "122016", "state": "Gurgaon", "type": "other", "poi_category": "general"}, {"id": 1060, "client_id": "CLIENT_001", "poi_name": "ASHISH ELECTRONICS, GURGAON", "latitude": 28.4890874, "longitude": 77.0111572, "radius_meters": 1500, "linked_vehicle": null, "linked_gps_time": null, "linked_distance_m": null, "city": "Gurugram", "address": "EP-188 MAIN JACUBPURA ROAD", "pin_code": "122001", "state": "Gurgaon", "type": "other", "poi_category": "general"}, {"id": 1061, "client_id": "CLIENT_001", "poi_name": "ASHOKA TRADING, FARIDABAD", "latitude": 28.4097044, "longitude": 77.4033518, "radius_meters": 1500, "linked_vehicle": null, "linked_gps_time": null, "linked_distance_m": null, "city": "Faridabad", "address": "46-47# SECTOR-16# FARIDABAD# HARYANA", "pin_code": "121007", "state": "Faridabad", "type": "other", "poi_category": "general"}, {"id": 1062, "client_id": "CLIENT_001", "poi_name": "Ambica Electronics, Narnaul", "latitude": 28.0438456, "longitude": 76.1062015, "radius_meters": 1500, "linked_vehicle": null, "linked_gps_time": null, "linked_distance_m": null, "city": "Narnaul", "address": "Mahaveer Chowk", "pin_code": "123001", "state": "Narnaul", "type": "other", "poi_category": "general"}, {"id": 1063, "client_id": "CLIENT_001", "poi_name": "BALAJI FURNITURE, HATHIN", "latitude": 28.0353892, "longitude": 77.2243198, "radius_meters": 1500, "linked_vehicle": null, "linked_gps_time": null, "linked_distance_m": null, "city": "Hathin", "address": "PALWAL HATHIN ROAD", "pin_code": "121103", "state": "HATHIN", "type": "tertiary", "poi_category": "general"}, {"id": 1064, "client_id": "CLIENT_001", "poi_name": "BHAGWATI FURNITURE, Mahendergarh", "latitude": 28.2726226, "longitude": 76.1493925, "radius_meters": 1500, "linked_vehicle": null, "linked_gps_time": null, "linked_distance_m": null, "city": "Mahendragarh", "address": "MAHENDERGARH", "pin_code": "123029", "state": "Mahendergarh", "type": "other", "poi_category": "general"}, {"id": 1065, "client_id": "CLIENT_001", "poi_name": "BHAJANLAL COMMERCIAL, GURGAON", "latitude": 28.4808629, "longitude": 77.0848883, "radius_meters": 1500, "linked_vehicle": null, "linked_gps_time": null, "linked_distance_m": null, "city": "Gurugram", "address": "SHOP NO 5# CHOMA RAM MANDIR COMPLEX", "pin_code": "122017", "state": "Gurgaon", "type": "other", "poi_category": "general"}, {"id": 1066, "client_id": "CLIENT_001", "poi_name": "BHAJANLAL COMMERCIAL, Gurgaon", "latitude": 28.4808629, "longitude": 77.0848883, "radius_meters": 1500, "linked_vehicle": null, "linked_gps_time": null, "linked_distance_m": null, "city": "Gurugram", "address": "House No 283# Bhangrola Opp Om Shanti Petrol pump", "pin_code": "122505", "state": "Gurgaon", "type": "other", "poi_category": "general"}, {"id": 1067, "client_id": "CLIENT_001", "poi_name": "BHAJANLAL COMMERCIAL, Karnal", "latitude": 29.6951152, "longitude": 76.9698292, "radius_meters": 1500, "linked_vehicle": null, "linked_gps_time": null, "linked_distance_m": null, "city": "Karnal", "address": "H- NO.54 Chamba Colony Opp. Petrol Pump#Karnal", "pin_code": "132001", "state": "Karnal", "type": "other", "poi_category": "general"}, {"id": 1068, "client_id": "CLIENT_001", "poi_name": "BHAJANLAL COMMERCIAL, Kurukshetra", "latitude": 29.9693747, "longitude": 76.8482787, "radius_meters": 1500, "linked_vehicle": null, "linked_gps_time": null, "linked_distance_m": null, "city": "Kurukshetra", "address": "Shop no 32 Anaj mandi Fatehpur Mob : 7206613123", "pin_code": "136042", "state": "Kurukshetra", "type": "other", "poi_category": "general"}, {"id": 1069, "client_id": "CLIENT_001", "poi_name": "BHANJANA RADIO, PALWAL", "latitude": 28.1515806, "longitude": 77.3417952, "radius_meters": 1500, "linked_vehicle": null, "linked_gps_time": null, "linked_distance_m": null, "city": "Palwal", "address": "SOHNA CHOWK", "pin_code": "121102", "state": "PALWAL", "type": "other", "poi_category": "general"}, {"id": 1071, "client_id": "CLIENT_001", "poi_name": "BHAWANA ELECTRONICS, MAHENDRAGARH", "latitude": 28.1326971, "longitude": 76.1697448, "radius_meters": 1500, "linked_vehicle": null, "linked_gps_time": null, "linked_distance_m": null, "city": "Mahendragarh", "address": "NEAR CSD CANTEEN SIHOR", "pin_code": "123027", "state": "MAHENDRAGARH", "type": "other", "poi_category": "general"}, {"id": 1072, "client_id": "CLIENT_001", "poi_name": "BIGSTORE SERVICES, Faridabad", "latitude": 28.4097044, "longitude": 77.4033518, "radius_meters": 1500, "linked_vehicle": null, "linked_gps_time": null, "linked_distance_m": null, "city": "Faridabad", "address": "Bhatwara", "pin_code": "121004", "state": "Faridabad", "type": "other", "poi_category": "general"}, {"id": 1073, "client_id": "CLIENT_001", "poi_name": "BINDRA T.V. AND, SAHA AMBALA", "latitude": 30.28579, "longitude": 76.9472949, "radius_meters": 1500, "linked_vehicle": null, "linked_gps_time": null, "linked_distance_m": null, "city": "Ambala", "address": "VILLAGE SAHA# PO BITTA AMBALA", "pin_code": "133104", "state": "Ambala", "type": "other", "poi_category": "general"}, {"id": 1074, "client_id": "CLIENT_001", "poi_name": "BINDRA TRADERS, Ambala", "latitude": 30.3843674, "longitude": 76.770421, "radius_meters": 1500, "linked_vehicle": null, "linked_gps_time": null, "linked_distance_m": null, "city": "Ambala", "address": "NEAR BINDRA TV AND ELECTRICALS", "pin_code": "133104", "state": "Ambala", "type": "tertiary", "poi_category": "general"}, {"id": 1075, "client_id": "CLIENT_001", "poi_name": "BRANDBUDDIEZ TECHNOLOGIES, Faridabad", "latitude": 28.4097044, "longitude": 77.4033518, "radius_meters": 1500, "linked_vehicle": null, "linked_gps_time": null, "linked_distance_m": null, "city": "Faridabad", "address": "Flat 402a Avenue Towers sector 125, Punjab, Rupnagar", "pin_code": "121008", "state": "Faridabad", "type": "other", "poi_category": "general"}, {"id": 1076, "client_id": "CLIENT_001", "poi_name": "BRANDBUDDIEZ TECHNOLOGIES, Gurgaon", "latitude": 28.4808629, "longitude": 77.0848883, "radius_meters": 1500, "linked_vehicle": null, "linked_gps_time": null, "linked_distance_m": null, "city": "Gurugram", "address": "Flat 402a Avenue Towers sector 125, Punjab, Rupnagar", "pin_code": "122505", "state": "Gurgaon", "type": "tertiary", "poi_category": "general"}, {"id": 1077, "client_id": "CLIENT_001", "poi_name": "BRANDBUDDIEZ TECHNOLOGIES, PUNJAB", "latitude": 30.7178072, "longitude": 76.6985062, "radius_meters": 1500, "linked_vehicle": null, "linked_gps_time": null, "linked_distance_m": null, "city": "Punjab", "address": "Flat 402a Avenue Towers sector 125, Punjab, Rupnagar", "pin_code": "140301", "state": "PUNJAB", "type": "other", "poi_category": "general"}, {"id": 1078, "client_id": "CLIENT_001", "poi_name": "Bharat Electronics, Jind", "latitude": 29.3152073, "longitude": 76.314082, "radius_meters": 1500, "linked_vehicle": null, "linked_gps_time": null, "linked_distance_m": null, "city": "Jind", "address": "NEAR RANI TALAB", "pin_code": "126102", "state": "Jind", "type": "tertiary", "poi_category": "general"}, {"id": 1079, "client_id": "CLIENT_001", "poi_name": "CAYRO ENTERPRISES, GURUGRAM", "latitude": 28.4808629, "longitude": 77.0848883, "radius_meters": 1500, "linked_vehicle": null, "linked_gps_time": null, "linked_distance_m": null, "city": "Gurugram", "address": "UNIT NO. DCG2-0104 DLF CORPORATE GREENS", "pin_code": "122004", "state": "Gurugram", "type": "other", "poi_category": "general"}, {"id": 1080, "client_id": "CLIENT_001", "poi_name": "CHANDANA ENTERPRISES., REWARI", "latitude": 28.1956468, "longitude": 76.6165179, "radius_meters": 1500, "linked_vehicle": null, "linked_gps_time": null, "linked_distance_m": null, "city": "Rewari", "address": "PRANPURA ROAD BAWAL", "pin_code": "123501", "state": "REWARI", "type": "other", "poi_category": "general"}, {"id": 1081, "client_id": "CLIENT_001", "poi_name": "CHAUDHARY ELECTRONICS, KARNAL", "latitude": 29.6951152, "longitude": 76.9698292, "radius_meters": 1500, "linked_vehicle": null, "linked_gps_time": null, "linked_distance_m": null, "city": "Karnal", "address": "SHYAM NAGAR OLD G.T.ROAD", "pin_code": "132001", "state": "Karnal", "type": "other", "poi_category": "general"}, {"id": 1082, "client_id": "CLIENT_001", "poi_name": "CLICKTECH RETAIL, Gurugram", "latitude": 28.4808629, "longitude": 77.0848883, "radius_meters": 1500, "linked_vehicle": null, "linked_gps_time": null, "linked_distance_m": null, "city": "Gurugram", "address": "Cabin 5 - Second Floor", "pin_code": "122003", "state": "Gurugram", "type": "other", "poi_category": "general"}, {"id": 1083, "client_id": "CLIENT_001", "poi_name": "COOL CARE AIRCONDITIONING, Gurgaon", "latitude": 28.4808629, "longitude": 77.0848883, "radius_meters": 1500, "linked_vehicle": null, "linked_gps_time": null, "linked_distance_m": null, "city": "Gurugram", "address": "2424 DLF Phase 4", "pin_code": "122022", "state": "Gurgaon", "type": "other", "poi_category": "general"}, {"id": 1084, "client_id": "CLIENT_001", "poi_name": "CREATIVE HITECH, BAHADURGARH", "latitude": 28.6933239, "longitude": 76.9332373, "radius_meters": 1500, "linked_vehicle": null, "linked_gps_time": null, "linked_distance_m": null, "city": "Bahadurgarh", "address": "KHASRA NO.715,744,745,746 ASAUDHA-KHARKHODA ROAD", "pin_code": "124507", "state": "BAHADURGARH", "type": "other", "poi_category": "general"}, {"id": 1085, "client_id": "CLIENT_001", "poi_name": "Chopra TV Care, Hissar", "latitude": 29.1155934, "longitude": 75.1835578, "radius_meters": 1500, "linked_vehicle": null, "linked_gps_time": null, "linked_distance_m": null, "city": "Hisar", "address": "BUS STAND ROAD RATIA", "pin_code": "125051", "state": "Hissar", "type": "other", "poi_category": "general"}, {"id": 1086, "client_id": "CLIENT_001", "poi_name": "Clicktech Retail, Taoru", "latitude": 28.2362971, "longitude": 76.9579287, "radius_meters": 1500, "linked_vehicle": null, "linked_gps_time": null, "linked_distance_m": null, "city": "Taoru", "address": "B 300 ERPL Warehousing Park Private Limited", "pin_code": "124108", "state": "Taoru", "type": "other", "poi_category": "general"}, {"id": 1087, "client_id": "CLIENT_001", "poi_name": "DARBAR TRADERS-CSD, Gugaon", "latitude": 28.40508, "longitude": 76.9655796, "radius_meters": 1500, "linked_vehicle": null, "linked_gps_time": null, "linked_distance_m": null, "city": "Gurugram", "address": "2314 Dlf phase 4 Gurgaon opposite Galleria market 9560897724#8588813384", "pin_code": "122022", "state": "Gugaon", "type": "other", "poi_category": "general"}, {"id": 1088, "client_id": "CLIENT_001", "poi_name": "DAWNTECH ELECTRONICS, Jhajjar", "latitude": 28.5964461, "longitude": 76.6505366, "radius_meters": 1500, "linked_vehicle": null, "linked_gps_time": null, "linked_distance_m": null, "city": "Jhajjar", "address": "Indospace Logistics Park, Luhari 3", "pin_code": "124108", "state": "Jhajjar", "type": "tertiary", "poi_category": "general"}, {"id": 1089, "client_id": "CLIENT_001", "poi_name": "DAWNTECH ELECTRONICS, LUCKNOW", "latitude": 26.8381, "longitude": 80.9346001, "radius_meters": 1500, "linked_vehicle": null, "linked_gps_time": null, "linked_distance_m": null, "city": "Lucknow", "address": "MLG Warehousing and Industrial Park Ltd Khasra No. 1296, 1297, 1298, 1299, 1300, , ", "pin_code": "226301", "state": "LUCKNOW", "type": "tertiary", "poi_category": "general"}, {"id": 1090, "client_id": "CLIENT_001", "poi_name": "DAWNTECH ELECTRONICS, Lucknow", "latitude": 26.8381, "longitude": 80.9346001, "radius_meters": 1500, "linked_vehicle": null, "linked_gps_time": null, "linked_distance_m": null, "city": "Lucknow", "address": "MLG Warehousing and Industrial Park Ltd Khasra No. 1296, 1297, 1298, 1299, 1300, ", "pin_code": "226301", "state": "Lucknow", "type": "other", "poi_category": "general"}, {"id": 1091, "client_id": "CLIENT_001", "poi_name": "DAWNTECH ELECTRONICS, Lucknow-", "latitude": 26.8381, "longitude": 80.9346001, "radius_meters": 1500, "linked_vehicle": null, "linked_gps_time": null, "linked_distance_m": null, "city": "Lucknow-", "address": "MLG Warehousing and Industrial Park Ltd Khasra No", "pin_code": "226301", "state": "Lucknow-", "type": "other", "poi_category": "general"}, {"id": 1092, "client_id": "CLIENT_001", "poi_name": "DAWNTECH ELECTRONICS, Gurgaon", "latitude": 28.4808629, "longitude": 77.0848883, "radius_meters": 1500, "linked_vehicle": null, "linked_gps_time": null, "linked_distance_m": null, "city": "Gurugram", "address": "B 300# ERPL Warehousing Park Private Limited Khewat 2/2# Rectangle No 34", "pin_code": "122105", "state": "Gurgaon", "type": "other", "poi_category": "general"}, {"id": 1093, "client_id": "CLIENT_001", "poi_name": "DAWNTECH ELECTRONICS, Sehsola Mewat Gurugram", "latitude": 28.4808629, "longitude": 77.0848883, "radius_meters": 1500, "linked_vehicle": null, "linked_gps_time": null, "linked_distance_m": null, "city": "Gurugram", "address": "B 300# ERPL Warehousing Park Pvt Ltd Khewat 2/2# Rectangle No 34", "pin_code": "122105", "state": "Gurugram", "type": "other", "poi_category": "general"}, {"id": 1094, "client_id": "CLIENT_001", "poi_name": "DEEP ELECTRONICS, REWARI", "latitude": 28.1956468, "longitude": 76.6165179, "radius_meters": 1500, "linked_vehicle": null, "linked_gps_time": null, "linked_distance_m": null, "city": "Rewari", "address": "KHEWAT NO 109#KHATAUNI NO 116 VILLAGE BIKANER", "pin_code": "123401", "state": "REWARI", "type": "tertiary", "poi_category": "general"}, {"id": 1095, "client_id": "CLIENT_001", "poi_name": "DEEPAK ELECTRONICS, BHIWANI", "latitude": 28.7975639, "longitude": 76.1455776, "radius_meters": 1500, "linked_vehicle": null, "linked_gps_time": null, "linked_distance_m": null, "city": "Bhiwani", "address": "HANSI ROAD NEAR BANSI LAL KI KOTHI", "pin_code": "127021", "state": "Bhiwani", "type": "tertiary", "poi_category": "general"}, {"id": 1096, "client_id": "CLIENT_001", "poi_name": "DHEERAJ ENTERPRISES-CSD, GURGAON", "latitude": 28.4808629, "longitude": 77.0848883, "radius_meters": 1500, "linked_vehicle": null, "linked_gps_time": null, "linked_distance_m": null, "city": "Gurugram", "address": "216/6 JACOBPURA ARYA SAMAJ ROAD GURUGRAM", "pin_code": "122006", "state": "Gurgaon", "type": "tertiary", "poi_category": "general"}, {"id": 1097, "client_id": "CLIENT_001", "poi_name": "DHEERAJ ENTERPRISES-CSD, Gurugram", "latitude": 28.4808629, "longitude": 77.0848883, "radius_meters": 1500, "linked_vehicle": null, "linked_gps_time": null, "linked_distance_m": null, "city": "Gurugram", "address": "216/6 JACOBPURA ARYA SAMAJ ROAD GURUGRAM", "pin_code": "122006", "state": "Gurugram", "type": "tertiary", "poi_category": "general"}, {"id": 1098, "client_id": "CLIENT_001", "poi_name": "DHURIA COMPANY, HISAR", "latitude": 29.1562688, "longitude": 75.7292303, "radius_meters": 1500, "linked_vehicle": null, "linked_gps_time": null, "linked_distance_m": null, "city": "Hisar", "address": "S.C.O-168/169 RED SQUARE MARKET", "pin_code": "125001", "state": "Hisar", "type": "tertiary", "poi_category": "general"}, {"id": 1099, "client_id": "CLIENT_001", "poi_name": "DURGA ENTERPRISES, Ambala", "latitude": 30.3843674, "longitude": 76.770421, "radius_meters": 1500, "linked_vehicle": null, "linked_gps_time": null, "linked_distance_m": null, "city": "Ambala", "address": "GURUDWARA CHOWNK RADAUR YAMUNA NAGAR", "pin_code": "135133", "state": "Ambala", "type": "tertiary", "poi_category": "general"}, {"id": 1100, "client_id": "CLIENT_001", "poi_name": "EDUNETWORK PRIVATE, Gurgaon", "latitude": 28.4808629, "longitude": 77.0848883, "radius_meters": 1500, "linked_vehicle": null, "linked_gps_time": null, "linked_distance_m": null, "city": "Gurugram", "address": "B02-A Emporium Industrial Parks India Pvt Ltd# Tehsil Sohna#", "pin_code": "122103", "state": "Gurgaon", "type": "other", "poi_category": "general"}, {"id": 1101, "client_id": "CLIENT_001", "poi_name": "EDUNETWORK PRIVATE, Gurugram", "latitude": 28.4808629, "longitude": 77.0848883, "radius_meters": 1500, "linked_vehicle": null, "linked_gps_time": null, "linked_distance_m": null, "city": "Gurugram", "address": "B02-A Emporium Industrial Parks India Pvt Ltd# Tehsil Sohna#", "pin_code": "122103", "state": "Gurugram", "type": "tertiary", "poi_category": "general"}, {"id": 1102, "client_id": "CLIENT_001", "poi_name": "EGCPL CONSULTANTS, Faridabad", "latitude": 28.4097044, "longitude": 77.4033518, "radius_meters": 1500, "linked_vehicle": null, "linked_gps_time": null, "linked_distance_m": null, "city": "Faridabad", "address": "I114 Piyus heights Sector 89 Faridabad", "pin_code": "121002", "state": "Faridabad", "type": "tertiary", "poi_category": "general"}, {"id": 1103, "client_id": "CLIENT_001", "poi_name": "EGCPL CONSULTANTS, GURGAON", "latitude": 28.4808629, "longitude": 77.0848883, "radius_meters": 1500, "linked_vehicle": null, "linked_gps_time": null, "linked_distance_m": null, "city": "Gurugram", "address": "SHALIMAR PAINTS LIMITED KHASRA NO 1006/1# SIHI SIKANDER", "pin_code": "122004", "state": "Gurgaon", "type": "tertiary", "poi_category": "general"}, {"id": 1104, "client_id": "CLIENT_001", "poi_name": "ELECTRONIC POINT, BHIWANI", "latitude": 28.7975639, "longitude": 76.1455776, "radius_meters": 1500, "linked_vehicle": null, "linked_gps_time": null, "linked_distance_m": null, "city": "Bhiwani", "address": "Hansi Gate# Bhiwani", "pin_code": "127021", "state": "Bhiwani", "type": "other", "poi_category": "general"}, {"id": 1105, "client_id": "CLIENT_001", "poi_name": "ELECTRONIC POINT, SIRSA", "latitude": 29.5372849, "longitude": 75.0377649, "radius_meters": 1500, "linked_vehicle": null, "linked_gps_time": null, "linked_distance_m": null, "city": "Sirsa", "address": "SADAR BAZAR SIRSA", "pin_code": "125055", "state": "SIRSA", "type": "other", "poi_category": "general"}, {"id": 1106, "client_id": "CLIENT_001", "poi_name": "ENKOS INTERNATIONAL, Gurgaon", "latitude": 28.4890874, "longitude": 77.0111572, "radius_meters": 1500, "linked_vehicle": null, "linked_gps_time": null, "linked_distance_m": null, "city": "Gurugram", "address": "38/5 NEAR BABA RAM MOHAN# MANDIR PATEL NAGAR#", "pin_code": "122001", "state": "Gurgaon", "type": "other", "poi_category": "general"}, {"id": 1107, "client_id": "CLIENT_001", "poi_name": "Electronics Mart, FARIDABAD", "latitude": 28.4031478, "longitude": 77.3105561, "radius_meters": 1500, "linked_vehicle": null, "linked_gps_time": null, "linked_distance_m": null, "city": "Faridabad", "address": "Commercial Property 14/3 Mathura Road", "pin_code": "121001", "state": "Faridabad", "type": "other", "poi_category": "general"}, {"id": 1108, "client_id": "CLIENT_001", "poi_name": "Electronics Mart, Faridabad", "latitude": 28.4097044, "longitude": 77.4033518, "radius_meters": 1500, "linked_vehicle": null, "linked_gps_time": null, "linked_distance_m": null, "city": "Faridabad", "address": "Commercial Property 14/3 Mathura Road", "pin_code": "121003", "state": "Faridabad", "type": "tertiary", "poi_category": "general"}, {"id": 1109, "client_id": "CLIENT_001", "poi_name": "Electronics Mart, Gurugram", "latitude": 28.4808629, "longitude": 77.0848883, "radius_meters": 1500, "linked_vehicle": null, "linked_gps_time": null, "linked_distance_m": null, "city": "Gurugram", "address": "Commercial Property 14/3 Mathura Road", "pin_code": "122001", "state": "Gurugram", "type": "other", "poi_category": "general"}, {"id": 1110, "client_id": "CLIENT_001", "poi_name": "Electronics Mart, Gurugram# Haryana", "latitude": 28.4808629, "longitude": 77.0848883, "radius_meters": 1500, "linked_vehicle": null, "linked_gps_time": null, "linked_distance_m": null, "city": "Gurugram", "address": "Commercial Property 14/3 Mathura Road", "pin_code": "122002", "state": "Gurugram", "type": "other", "poi_category": "general"}, {"id": 1112, "client_id": "CLIENT_001", "poi_name": "FINE ELECTRONICS, BALLABHGARH", "latitude": 28.340002, "longitude": 77.3164509, "radius_meters": 1500, "linked_vehicle": null, "linked_gps_time": null, "linked_distance_m": null, "city": "Ballabhgarh", "address": "SHOP NO- 5# NEW COMPLEX MARKET AMBEDKAR CHOWK", "pin_code": "121004", "state": "BALLABHGARH", "type": "other", "poi_category": "general"}, {"id": 1113, "client_id": "CLIENT_001", "poi_name": "FLIPKART INDIA, JHAJJAR", "latitude": 28.5964461, "longitude": 76.6505366, "radius_meters": 1500, "linked_vehicle": null, "linked_gps_time": null, "linked_distance_m": null, "city": "Jhajjar", "address": "INSTAKART SERVICES PVT. LTD RECTANGLE NO-2/3/4 RECTANGLE NO-6/7/8/9", "pin_code": "124103", "state": "Jhajjar", "type": "other", "poi_category": "general"}, {"id": 1114, "client_id": "CLIENT_001", "poi_name": "Flipkart India, Jhajjar", "latitude": 28.5964461, "longitude": 76.6505366, "radius_meters": 1500, "linked_vehicle": null, "linked_gps_time": null, "linked_distance_m": null, "city": "Jhajjar", "address": "Block B Pragati Two# Khasra N0 .83//21/1 min and other", "pin_code": "124105", "state": "Jhajjar", "type": "other", "poi_category": "general"}, {"id": 1115, "client_id": "CLIENT_001", "poi_name": "GABA ELECTRONICS, PANIPAT", "latitude": 29.3912753, "longitude": 76.9771675, "radius_meters": 1500, "linked_vehicle": null, "linked_gps_time": null, "linked_distance_m": null, "city": "Panipat", "address": "PLOT NO 18 NEAR ANIL PETROL PUMP", "pin_code": "132103", "state": "Panipat", "type": "other", "poi_category": "general"}, {"id": 1116, "client_id": "CLIENT_001", "poi_name": "GANPATI ELECTRONICS, GURGAON", "latitude": 28.4808629, "longitude": 77.0848883, "radius_meters": 1500, "linked_vehicle": null, "linked_gps_time": null, "linked_distance_m": null, "city": "Gurugram", "address": "1ST FLOOR# MAIN DELHI-ALWAR ROAD SOHNA OPP. BUS STAND NEAR DR. JINDAL", "pin_code": "122103", "state": "Gurgaon", "type": "tertiary", "poi_category": "general"}, {"id": 1117, "client_id": "CLIENT_001", "poi_name": "GANPATI HITECH, GHAZIABAD", "latitude": 28.6725546, "longitude": 77.4137315, "radius_meters": 1500, "linked_vehicle": null, "linked_gps_time": null, "linked_distance_m": null, "city": "Ghaziabad", "address": "A-56 PATEL NAGAR -II", "pin_code": "201001", "state": "GHAZIABAD", "type": "tertiary", "poi_category": "general"}, {"id": 1118, "client_id": "CLIENT_001", "poi_name": "GARG ELECTRICALS, FARIDABAD", "latitude": 28.4031478, "longitude": 77.3105561, "radius_meters": 1500, "linked_vehicle": null, "linked_gps_time": null, "linked_distance_m": null, "city": "Faridabad", "address": "NIT-5 PLOT NO 4-CP NEELAM RAILWAY ROAD NIT 5 FARIDABAD", "pin_code": "121001", "state": "Faridabad", "type": "other", "poi_category": "general"}, {"id": 1119, "client_id": "CLIENT_001", "poi_name": "GIFT CORPORATE, ATMADPUR", "latitude": 27.3812357, "longitude": 77.8687129, "radius_meters": 1500, "linked_vehicle": null, "linked_gps_time": null, "linked_distance_m": null, "city": "Atmadpur", "address": "BHOOMI TRADERS- dheeraj nagar faridabad", "pin_code": "121003", "state": "ATMADPUR", "type": "other", "poi_category": "general"}, {"id": 1120, "client_id": "CLIENT_001", "poi_name": "GIFT CORPORATE, BHIWANI", "latitude": 28.7975639, "longitude": 76.1455776, "radius_meters": 1500, "linked_vehicle": null, "linked_gps_time": null, "linked_distance_m": null, "city": "Bhiwani", "address": "MAHALAKSMI PAINT AND HARDWARE STORE-NAYA BAJAR ROAD", "pin_code": "127021", "state": "Bhiwani", "type": "other", "poi_category": "general"}, {"id": 1121, "client_id": "CLIENT_001", "poi_name": "GIFT CORPORATE, FARIDABAD", "latitude": 28.4031478, "longitude": 77.3105561, "radius_meters": 1500, "linked_vehicle": null, "linked_gps_time": null, "linked_distance_m": null, "city": "Faridabad", "address": "GUPTA PAINTS HARDWARE STORE Main Road NEAR BY PATEL CHOWK", "pin_code": "121001", "state": "Faridabad", "type": "other", "poi_category": "general"}, {"id": 1122, "client_id": "CLIENT_001", "poi_name": "GIFT CORPORATE, GURGAON", "latitude": 28.4808629, "longitude": 77.0848883, "radius_meters": 1500, "linked_vehicle": null, "linked_gps_time": null, "linked_distance_m": null, "city": "Gurugram", "address": "GUPTA PAINT HARAWARE M G Road# Sikander Pur Chowk", "pin_code": "122002", "state": "Gurgaon", "type": "other", "poi_category": "general"}, {"id": 1123, "client_id": "CLIENT_001", "poi_name": "GIFT CORPORATE, GURUGRAM", "latitude": 28.4808629, "longitude": 77.0848883, "radius_meters": 1500, "linked_vehicle": null, "linked_gps_time": null, "linked_distance_m": null, "city": "Gurugram", "address": "SHARMA PAINT HARDWARE STORE SHOP NO. 17# GANGANIA COMPLEX", "pin_code": "122001", "state": "Gurugram", "type": "other", "poi_category": "general"}, {"id": 1124, "client_id": "CLIENT_001", "poi_name": "GIFT CORPORATE, faridabad", "latitude": 28.4097044, "longitude": 77.4033518, "radius_meters": 1500, "linked_vehicle": null, "linked_gps_time": null, "linked_distance_m": null, "city": "Faridabad", "address": "K D ENTERPRISES- DAULAT COLONY uchagaon near chungi no 5", "pin_code": "121004", "state": "Faridabad", "type": "other", "poi_category": "general"}, {"id": 1125, "client_id": "CLIENT_001", "poi_name": "GOEL BROTHERS, Rohtak", "latitude": 28.9010899, "longitude": 76.5801935, "radius_meters": 1500, "linked_vehicle": null, "linked_gps_time": null, "linked_distance_m": null, "city": "Rohtak", "address": "Goel Brothers", "pin_code": "124001", "state": "Rohtak", "type": "other", "poi_category": "general"}, {"id": 1126, "client_id": "CLIENT_001", "poi_name": "GOLDY ELECTRONICS, GURGAON", "latitude": 28.4890874, "longitude": 77.0111572, "radius_meters": 1500, "linked_vehicle": null, "linked_gps_time": null, "linked_distance_m": null, "city": "Gurugram", "address": "SHOP NO 216-16 JACUBPURA ROAD", "pin_code": "122001", "state": "Gurgaon", "type": "other", "poi_category": "general"}, {"id": 1127, "client_id": "CLIENT_001", "poi_name": "GOLDY ELECTRONICS, SOHNA", "latitude": 28.2459908, "longitude": 77.0670992, "radius_meters": 1500, "linked_vehicle": null, "linked_gps_time": null, "linked_distance_m": null, "city": "Sohna", "address": "SHOP NO 5 DAMDAMA ROAD", "pin_code": "122103", "state": "SOHNA", "type": "tertiary", "poi_category": "general"}, {"id": 1128, "client_id": "CLIENT_001", "poi_name": "GOSWAMI ELECTRONICS, HARYANA", "latitude": 30.7573002, "longitude": 76.8067372, "radius_meters": 1500, "linked_vehicle": null, "linked_gps_time": null, "linked_distance_m": null, "city": "Haryana", "address": "VPO-BERI JHAJJAR", "pin_code": "124201", "state": "HARYANA", "type": "other", "poi_category": "general"}, {"id": 1129, "client_id": "CLIENT_001", "poi_name": "GOYAL ELECTRONICS, PUNHANA", "latitude": 27.8637502, "longitude": 77.2051612, "radius_meters": 1500, "linked_vehicle": null, "linked_gps_time": null, "linked_distance_m": null, "city": "Punhana", "address": "PUNJABI COLONY PUNHANA", "pin_code": "122508", "state": "PUNHANA", "type": "other", "poi_category": "general"}, {"id": 1130, "client_id": "CLIENT_001", "poi_name": "GOYAL ELECTRONICS, Palwal", "latitude": 28.0599426, "longitude": 77.3223422, "radius_meters": 1500, "linked_vehicle": null, "linked_gps_time": null, "linked_distance_m": null, "city": "Palwal", "address": "00# BORAKA ROAD# Hodal Punhana Road", "pin_code": "121106", "state": "Palwal", "type": "tertiary", "poi_category": "general"}, {"id": 1131, "client_id": "CLIENT_001", "poi_name": "GOYAL ELECTRONICS-SATNALI, MAHENDRAGARH", "latitude": 28.1326971, "longitude": 76.1697448, "radius_meters": 1500, "linked_vehicle": null, "linked_gps_time": null, "linked_distance_m": null, "city": "Mahendragarh", "address": "STATION ROAD SATNALI MANDI", "pin_code": "123024", "state": "MAHENDRAGARH", "type": "other", "poi_category": "general"}, {"id": 1132, "client_id": "CLIENT_001", "poi_name": "GUPTA MUSIC CENTRE, FARIDABAD", "latitude": 28.4031478, "longitude": 77.3105561, "radius_meters": 1500, "linked_vehicle": null, "linked_gps_time": null, "linked_distance_m": null, "city": "Faridabad", "address": "C-56C# DABUA COLONY POST OFFICE ROAD", "pin_code": "121001", "state": "Faridabad", "type": "other", "poi_category": "general"}, {"id": 1133, "client_id": "CLIENT_001", "poi_name": "GURU MAA ENTERPRISES, KARNAL", "latitude": 29.6951152, "longitude": 76.9698292, "radius_meters": 1500, "linked_vehicle": null, "linked_gps_time": null, "linked_distance_m": null, "city": "Karnal", "address": "SHOP NO-13 MANGAL SINGH MARKET", "pin_code": "132001", "state": "Karnal", "type": "other", "poi_category": "general"}, {"id": 1134, "client_id": "CLIENT_001", "poi_name": "GURU MAA ENTERPRISES, PANIPAT", "latitude": 29.3912753, "longitude": 76.9771675, "radius_meters": 1500, "linked_vehicle": null, "linked_gps_time": null, "linked_distance_m": null, "city": "Panipat", "address": "NEAR HOTEL WEST OPP CENTRAL BANK OF INDIA", "pin_code": "132103", "state": "Panipat", "type": "other", "poi_category": "general"}, {"id": 1135, "client_id": "CLIENT_001", "poi_name": "GURU NANAK AIR, KARNAL", "latitude": 29.6951152, "longitude": 76.9698292, "radius_meters": 1500, "linked_vehicle": null, "linked_gps_time": null, "linked_distance_m": null, "city": "Karnal", "address": "SHOP NO. - 13, MANGAL SINGH MARKET", "pin_code": "132001", "state": "Karnal", "type": "other", "poi_category": "general"}, {"id": 1136, "client_id": "CLIENT_001", "poi_name": "HAIER APPLIANCES INDIA PVT LIMITED, Gurugram", "latitude": 28.3657, "longitude": 76.9929, "radius_meters": 500, "linked_vehicle": null, "linked_gps_time": null, "linked_distance_m": null, "city": "Gurugram", "address": "HAIER APPLIANCES INDIA PVT LIMITED,Khasra No. 114/19/1# 19/2# 20/1# 21/2#22/1 Village Pataudi,Gurugram,122503", "pin_code": "122503", "state": "Haryana", "type": "secondary", "poi_category": "general"}, {"id": 1138, "client_id": "CLIENT_001", "poi_name": "HAIER APPLIANCES, KARNAL", "latitude": 29.64062, "longitude": 77.0733, "radius_meters": 1500, "linked_vehicle": null, "linked_gps_time": null, "linked_distance_m": null, "city": "Karnal", "address": "Kay Sons Oils Ltd Village-Mohidinpur Raod", "pin_code": "132001", "state": "Haryana", "type": "secondary", "poi_category": "electronics"}, {"id": 1139, "client_id": "CLIENT_001", "poi_name": "HAIER APPLIANCES, DELHI", "latitude": 28.6138954, "longitude": 77.2090057, "radius_meters": 1500, "linked_vehicle": null, "linked_gps_time": null, "linked_distance_m": null, "city": "Delhi", "address": "KHASRA NO. 62/8# 13# 17 18 NETAJI SUBHASH VIHAR#VILLAGE-TIKRI KALAN", "pin_code": "110041", "state": "DELHI", "type": "other", "poi_category": "general"}, {"id": 1140, "client_id": "CLIENT_001", "poi_name": "HAIER APPLIANCES, GHAZIABAD", "latitude": 28.7749966, "longitude": 77.4586967, "radius_meters": 1500, "linked_vehicle": null, "linked_gps_time": null, "linked_distance_m": null, "city": "Ghaziabad", "address": "C/O. SALASAR INFRACORP LLP# KHASRA NO.: 2582# AAM KA ROAD#", "pin_code": "203208", "state": "GHAZIABAD", "type": "primary", "poi_category": "general"}, {"id": 1142, "client_id": "CLIENT_001", "poi_name": "HAIER APPLIANCES, JAIPUR", "latitude": 26.9154576, "longitude": 75.8189817, "radius_meters": 1500, "linked_vehicle": null, "linked_gps_time": null, "linked_distance_m": null, "city": "Jaipur", "address": "KHASRA NO.-396-87/184 NEAR TATIAWAS TOLL PLAZA", "pin_code": "302028", "state": "JAIPUR", "type": "other", "poi_category": "general"}, {"id": 1143, "client_id": "CLIENT_001", "poi_name": "HAIER APPLIANCES, LUCKNOW", "latitude": 26.8381, "longitude": 80.9346001, "radius_meters": 1500, "linked_vehicle": null, "linked_gps_time": null, "linked_distance_m": null, "city": "Lucknow", "address": "Khasra No.533 BHANDARI FARMS", "pin_code": "226008", "state": "LUCKNOW", "type": "other", "poi_category": "general"}, {"id": 1144, "client_id": "CLIENT_001", "poi_name": "HAIER APPLIANCES, LUDHIANA", "latitude": 30.9090157, "longitude": 75.851601, "radius_meters": 1500, "linked_vehicle": null, "linked_gps_time": null, "linked_distance_m": null, "city": "Ludhiana", "address": "NAHAR LOGISTICS PARK#KHASRA NO 48//18/4/1 -19/2/2 -22-56//3 8 VILL KATANI KALAN# NEELON DORAHA ROAD", "pin_code": "141418", "state": "LUDHIANA", "type": "tertiary", "poi_category": "general"}, {"id": 1145, "client_id": "CLIENT_001", "poi_name": "HARYANA ELECTRONICS, REWARI", "latitude": 28.1956468, "longitude": 76.6165179, "radius_meters": 1500, "linked_vehicle": null, "linked_gps_time": null, "linked_distance_m": null, "city": "Rewari", "address": "SHOP NO-27-28 LALA JAI BHAGWAN GOEL MARKET", "pin_code": "123401", "state": "REWARI", "type": "other", "poi_category": "general"}, {"id": 1147, "client_id": "CLIENT_001", "poi_name": "HOUSE OF KIERAYA, GURUGRAM", "latitude": 28.4808629, "longitude": 77.0848883, "radius_meters": 1500, "linked_vehicle": null, "linked_gps_time": null, "linked_distance_m": null, "city": "Gurugram", "address": "Khasra No-55//4/2#6#7#15#56//9/1 min#10#11/1 Alipur# Gurugram", "pin_code": "122102", "state": "Gurugram", "type": "tertiary", "poi_category": "general"}, {"id": 1148, "client_id": "CLIENT_001", "poi_name": "HOUSE OF KIERAYA, Gurugram", "latitude": 28.4808629, "longitude": 77.0848883, "radius_meters": 1500, "linked_vehicle": null, "linked_gps_time": null, "linked_distance_m": null, "city": "Gurugram", "address": "Khasra No-55//4/2#6#7#15#56//9/1 min#10#11/1 Alipur# Gurugram", "pin_code": "122102", "state": "Gurugram", "type": "other", "poi_category": "general"}, {"id": 1150, "client_id": "CLIENT_001", "poi_name": "INDKAL TECHNOLOGIES, GURUGRAM", "latitude": 28.4808629, "longitude": 77.0848883, "radius_meters": 1500, "linked_vehicle": null, "linked_gps_time": null, "linked_distance_m": null, "city": "Gurugram", "address": "NARHERA", "pin_code": "122503", "state": "Gurugram", "type": "other", "poi_category": "general"}, {"id": 1151, "client_id": "CLIENT_001", "poi_name": "INDKAL TECHNOLOGIES, Gurugram", "latitude": 28.4808629, "longitude": 77.0848883, "radius_meters": 1500, "linked_vehicle": null, "linked_gps_time": null, "linked_distance_m": null, "city": "Gurugram", "address": "27//21/1/1/1, 40//1, 40//2, 40", "pin_code": "122503", "state": "Gurugram", "type": "primary", "poi_category": "general"}, {"id": 1152, "client_id": "CLIENT_001", "poi_name": "INDKAL TECHNOLOGIES, Rewari", "latitude": 28.1956468, "longitude": 76.6165179, "radius_meters": 1500, "linked_vehicle": null, "linked_gps_time": null, "linked_distance_m": null, "city": "Rewari", "address": "80 MILESTONE, VILLAGE KHIJURI", "pin_code": "123401", "state": "Haryana", "type": "primary", "poi_category": "general"}, {"id": 1153, "client_id": "CLIENT_001", "poi_name": "INFINITI RETAIL, Faridabad", "latitude": 28.4097044, "longitude": 77.4033518, "radius_meters": 1500, "linked_vehicle": null, "linked_gps_time": null, "linked_distance_m": null, "city": "Faridabad", "address": "Crown Mall Crown Mall 12 7", "pin_code": "121003", "state": "Faridabad", "type": "tertiary", "poi_category": "general"}, {"id": 1154, "client_id": "CLIENT_001", "poi_name": "INSTYLE SOLUTIONS, Bhiwani", "latitude": 28.7975639, "longitude": 76.1455776, "radius_meters": 1500, "linked_vehicle": null, "linked_gps_time": null, "linked_distance_m": null, "city": "Bhiwani", "address": "Mini Bypass Bhiwani Near Kadam Hospital Bhiwani", "pin_code": "127021", "state": "Bhiwani", "type": "other", "poi_category": "general"}, {"id": 1155, "client_id": "CLIENT_001", "poi_name": "INSTYLE SOLUTIONS, Faridabad", "latitude": 28.4097044, "longitude": 77.4033518, "radius_meters": 1500, "linked_vehicle": null, "linked_gps_time": null, "linked_distance_m": null, "city": "Faridabad", "address": "Shop No:-1 Sector 10/11 Deviding Road Near Sanjeevni Hospital", "pin_code": "121004", "state": "Faridabad", "type": "other", "poi_category": "general"}, {"id": 1156, "client_id": "CLIENT_001", "poi_name": "INSTYLE SOLUTIONS, Gurgaon", "latitude": 28.4646148, "longitude": 77.0299194, "radius_meters": 1500, "linked_vehicle": null, "linked_gps_time": null, "linked_distance_m": null, "city": "Gurugram", "address": "Ward No6 Hailymandi Mob : 9873050502", "pin_code": "122504", "state": "Gurgaon", "type": "other", "poi_category": "general"}, {"id": 1157, "client_id": "CLIENT_001", "poi_name": "INSTYLE SOLUTIONS, Gurugram", "latitude": 28.4808629, "longitude": 77.0848883, "radius_meters": 1500, "linked_vehicle": null, "linked_gps_time": null, "linked_distance_m": null, "city": "Gurugram", "address": "Steet No. 31B# Building No 28 29#4th floor DLF Phase 3", "pin_code": "122022", "state": "Gurugram", "type": "tertiary", "poi_category": "general"}, {"id": 1158, "client_id": "CLIENT_001", "poi_name": "INSTYLE SOLUTIONS, Jhajjar", "latitude": 28.5964461, "longitude": 76.6505366, "radius_meters": 1500, "linked_vehicle": null, "linked_gps_time": null, "linked_distance_m": null, "city": "Jhajjar", "address": "Circuler road Jhajjar Near mata gate Jhajjar", "pin_code": "124103", "state": "Jhajjar", "type": "other", "poi_category": "general"}, {"id": 1159, "client_id": "CLIENT_001", "poi_name": "INSTYLE SOLUTIONS, Mewat", "latitude": 28.2088016, "longitude": 77.0576632, "radius_meters": 1500, "linked_vehicle": null, "linked_gps_time": null, "linked_distance_m": null, "city": "Mewat", "address": "Mohmmad pur ahir Mob : 7015883602", "pin_code": "122105", "state": "Mewat", "type": "tertiary", "poi_category": "general"}, {"id": 1160, "client_id": "CLIENT_001", "poi_name": "INSTYLE SOLUTIONS, New Faridabad", "latitude": 28.407078, "longitude": 77.2994381, "radius_meters": 1500, "linked_vehicle": null, "linked_gps_time": null, "linked_distance_m": null, "city": "Faridabad", "address": "HNo 195A Gali no 13 Bhikam Colony Ballabgarh 10th Floor#DLF- 1 BLOCK C", "pin_code": "121004", "state": "Faridabad", "type": "other", "poi_category": "general"}, {"id": 1161, "client_id": "CLIENT_001", "poi_name": "INSTYLE SOLUTIONS, Nuh", "latitude": 28.1033372, "longitude": 77.0047993, "radius_meters": 1500, "linked_vehicle": null, "linked_gps_time": null, "linked_distance_m": null, "city": "Nuh", "address": "Near Forest Office Gaushala Road Mob : 9671531263", "pin_code": "122107", "state": "Nuh", "type": "tertiary", "poi_category": "general"}, {"id": 1162, "client_id": "CLIENT_001", "poi_name": "INSTYLE SOLUTIONS, Palwal", "latitude": 28.1515806, "longitude": 77.3417952, "radius_meters": 1500, "linked_vehicle": null, "linked_gps_time": null, "linked_distance_m": null, "city": "Palwal", "address": "House no B 155 Shyam Nagar Mob : 8685923889", "pin_code": "121102", "state": "Palwal", "type": "tertiary", "poi_category": "general"}, {"id": 1163, "client_id": "CLIENT_001", "poi_name": "INSTYLE SOLUTIONS, Rohtak", "latitude": 28.9010899, "longitude": 76.5801935, "radius_meters": 1500, "linked_vehicle": null, "linked_gps_time": null, "linked_distance_m": null, "city": "Rohtak", "address": "HNo 570 #Maina#Near jalabi chock Mob : 9034753662", "pin_code": "124001", "state": "Rohtak", "type": "other", "poi_category": "general"}, {"id": 1164, "client_id": "CLIENT_001", "poi_name": "Infiniti Retail, Gurgaon", "latitude": 28.4808629, "longitude": 77.0848883, "radius_meters": 1500, "linked_vehicle": null, "linked_gps_time": null, "linked_distance_m": null, "city": "Gurugram", "address": "ESR Sohna Warehousing Logistics Park C/o Emporium Industrial Parks (India)", "pin_code": "122103", "state": "Gurgaon", "type": "tertiary", "poi_category": "general"}, {"id": 1165, "client_id": "CLIENT_001", "poi_name": "J.P.BROTHERS, SIRSA", "latitude": 29.5372849, "longitude": 75.0377649, "radius_meters": 1500, "linked_vehicle": null, "linked_gps_time": null, "linked_distance_m": null, "city": "Sirsa", "address": "SADAR BAZAR", "pin_code": "125055", "state": "SIRSA", "type": "other", "poi_category": "general"}, {"id": 1166, "client_id": "CLIENT_001", "poi_name": "JAI DURGA ELECTRICAL, FARIDBAD", "latitude": 28.4097044, "longitude": 77.4033518, "radius_meters": 1500, "linked_vehicle": null, "linked_gps_time": null, "linked_distance_m": null, "city": "Faridabad", "address": "SHOP NO 94 BHUD COLONY", "pin_code": "121002", "state": "FARIDBAD", "type": "other", "poi_category": "general"}, {"id": 1167, "client_id": "CLIENT_001", "poi_name": "JINDAL STEEL, Hissar", "latitude": 29.1155934, "longitude": 75.1835578, "radius_meters": 1500, "linked_vehicle": null, "linked_gps_time": null, "linked_distance_m": null, "city": "Hisar", "address": "near by Baba Electronic", "pin_code": "125133", "state": "Hissar", "type": "tertiary", "poi_category": "general"}, {"id": 1168, "client_id": "CLIENT_001", "poi_name": "K K SALES (P), ALLAHABAD", "latitude": 25.3918896, "longitude": 81.8570139, "radius_meters": 1500, "linked_vehicle": null, "linked_gps_time": null, "linked_distance_m": null, "city": "Allahabad", "address": "29#D#INDUSTRIAL COLONY# OPP NAINI KOTWALI# BESIDE BSNL", "pin_code": "211008", "state": "ALLAHABAD", "type": "other", "poi_category": "general"}, {"id": 1169, "client_id": "CLIENT_001", "poi_name": "KATIYAR WATCH, KANPUR", "latitude": 26.4635198, "longitude": 80.246895, "radius_meters": 1500, "linked_vehicle": null, "linked_gps_time": null, "linked_distance_m": null, "city": "Kanpur", "address": "1-B#KARHI SUBJI MANDI#OPP.BARODA EASTERN UTTAR PRADESH GRAMIN BANK#", "pin_code": "208027", "state": "KANPUR", "type": "tertiary", "poi_category": "general"}, {"id": 1170, "client_id": "CLIENT_001", "poi_name": "KCOP DISTRIBUTERS, DELHI", "latitude": 28.6138954, "longitude": 77.2090057, "radius_meters": 1500, "linked_vehicle": null, "linked_gps_time": null, "linked_distance_m": null, "city": "Delhi", "address": "RZ-5 SYNDICATE ENCLAVE RAGHU NAGAR DABRI MORE PANKHA ROAD", "pin_code": "110045", "state": "DELHI", "type": "other", "poi_category": "general"}, {"id": 1171, "client_id": "CLIENT_001", "poi_name": "KHERA HOME APPLIANCES, NUH", "latitude": 28.1033372, "longitude": 77.0047993, "radius_meters": 1500, "linked_vehicle": null, "linked_gps_time": null, "linked_distance_m": null, "city": "Nuh", "address": "PUNJABI MARKET NUH# MEWAT", "pin_code": "122107", "state": "NUH", "type": "other", "poi_category": "general"}, {"id": 1172, "client_id": "CLIENT_001", "poi_name": "KIDA RETAIL, Gurgaon", "latitude": 28.4808629, "longitude": 77.0848883, "radius_meters": 1500, "linked_vehicle": null, "linked_gps_time": null, "linked_distance_m": null, "city": "Gurugram", "address": "Amazon Seller Services Pvt. Ltd Rect/Killa Nos. 38//8/2 4 other nos", "pin_code": "122413", "state": "Gurgaon", "type": "other", "poi_category": "general"}, {"id": 1173, "client_id": "CLIENT_001", "poi_name": "KRISHNA ELECTRONICS, GURGAON", "latitude": 28.4808629, "longitude": 77.0848883, "radius_meters": 1500, "linked_vehicle": null, "linked_gps_time": null, "linked_distance_m": null, "city": "Gurugram", "address": "GROUND FLOOR# SHOP NO.G 33 SAPPHIRE COURT# SECTOR-49", "pin_code": "122002", "state": "Gurgaon", "type": "other", "poi_category": "general"}, {"id": 1174, "client_id": "CLIENT_001", "poi_name": "LAXMI ELECTRONICS, Bhiwani", "latitude": 28.7931703, "longitude": 76.1391283, "radius_meters": 1500, "linked_vehicle": null, "linked_gps_time": null, "linked_distance_m": null, "city": "Bhiwani", "address": "Jwali roadBadhraBhiwani", "pin_code": "127308", "state": "Bhiwani", "type": "other", "poi_category": "general"}, {"id": 1175, "client_id": "CLIENT_001", "poi_name": "LIFE BIRD MOULDS, BAREILLY", "latitude": 28.4582345, "longitude": 79.4047452, "radius_meters": 1500, "linked_vehicle": null, "linked_gps_time": null, "linked_distance_m": null, "city": "Bareilly", "address": "GROUND FLOOR, PLOT NO 142, 142, 143, KHSRA NO", "pin_code": "243502", "state": "BAREILLY", "type": "other", "poi_category": "general"}, {"id": 1176, "client_id": "CLIENT_001", "poi_name": "M.S. ENTERPRISES, BAHADURGARH", "latitude": 28.6933239, "longitude": 76.9332373, "radius_meters": 1500, "linked_vehicle": null, "linked_gps_time": null, "linked_distance_m": null, "city": "Bahadurgarh", "address": "NEAR POST OFFICE JHAJJAR ROAD", "pin_code": "124507", "state": "BAHADURGARH", "type": "other", "poi_category": "general"}, {"id": 1177, "client_id": "CLIENT_001", "poi_name": "M/s Pacefic Marketing, Jind", "latitude": 29.3152073, "longitude": 76.314082, "radius_meters": 1500, "linked_vehicle": null, "linked_gps_time": null, "linked_distance_m": null, "city": "Jind", "address": "RANI TALAB ROAD JIND", "pin_code": "126102", "state": "Jind", "type": "other", "poi_category": "general"}, {"id": 1178, "client_id": "CLIENT_001", "poi_name": "MADAAN ELECTRONICS., AMBALA", "latitude": 30.344202, "longitude": 76.8298272, "radius_meters": 1500, "linked_vehicle": null, "linked_gps_time": null, "linked_distance_m": null, "city": "Ambala", "address": "4#5# NEAR PUNJAB KESARI OFFICE JAGADHARI ROAD", "pin_code": "133001", "state": "Ambala", "type": "tertiary", "poi_category": "general"}, {"id": 1179, "client_id": "CLIENT_001", "poi_name": "MADAAN ELECTRONICS., Kurukshetra", "latitude": 29.9693747, "longitude": 76.8482787, "radius_meters": 1500, "linked_vehicle": null, "linked_gps_time": null, "linked_distance_m": null, "city": "Kurukshetra", "address": "4559# Ladwa Pipli Road Bir Mathana# Sirsala", "pin_code": "136131", "state": "Kurukshetra", "type": "other", "poi_category": "general"}, {"id": 1180, "client_id": "CLIENT_001", "poi_name": "MAHA LAXMI ENTERPRISES, Hissar", "latitude": 29.0444205, "longitude": 75.6341317, "radius_meters": 1500, "linked_vehicle": null, "linked_gps_time": null, "linked_distance_m": null, "city": "Hisar", "address": "near Baba sunder dass Gurudawara", "pin_code": "125001", "state": "Hissar", "type": "other", "poi_category": "general"}, {"id": 1181, "client_id": "CLIENT_001", "poi_name": "MAHABIR ALUMINIUMS, Yamuna Nagar", "latitude": 19.1481254, "longitude": 72.827599, "radius_meters": 1500, "linked_vehicle": null, "linked_gps_time": null, "linked_distance_m": null, "city": "Yamunanagar", "address": "Old Ghass Mandi, Jagaghri, Yamunanagar", "pin_code": "135003", "state": "Yamuna nagar", "type": "tertiary", "poi_category": "general"}, {"id": 1182, "client_id": "CLIENT_001", "poi_name": "MALWA RADIO, ELLENABAD", "latitude": 29.444108, "longitude": 74.6579499, "radius_meters": 1500, "linked_vehicle": null, "linked_gps_time": null, "linked_distance_m": null, "city": "Ellenabad", "address": "MAIN BAZAR", "pin_code": "125102", "state": "ELLENABAD", "type": "tertiary", "poi_category": "general"}, {"id": 1183, "client_id": "CLIENT_001", "poi_name": "MEHTA ELECTRONICS, DABWALI", "latitude": 29.9486566, "longitude": 74.7372809, "radius_meters": 1500, "linked_vehicle": null, "linked_gps_time": null, "linked_distance_m": null, "city": "Dabwali", "address": "MANDI DABWALI", "pin_code": "125104", "state": "DABWALI", "type": "other", "poi_category": "general"}, {"id": 1184, "client_id": "CLIENT_001", "poi_name": "MERCURY ELECTRONICS, HISAR", "latitude": 29.1562688, "longitude": 75.7292303, "radius_meters": 1500, "linked_vehicle": null, "linked_gps_time": null, "linked_distance_m": null, "city": "Hisar", "address": "GODOWN NO 1 NH 10# RAJGARH ROAD VPO MUKLAN# HISAR", "pin_code": "125001", "state": "Hisar", "type": "other", "poi_category": "general"}, {"id": 1185, "client_id": "CLIENT_001", "poi_name": "MERIDIAN COMPU, Dharuhera", "latitude": 28.2055216, "longitude": 76.7953099, "radius_meters": 1500, "linked_vehicle": null, "linked_gps_time": null, "linked_distance_m": null, "city": "Dharuhera", "address": "Dharuhera Ground Floor#56/1 lala Nemi singhal Enclave Ward No. 3#", "pin_code": "123106", "state": "Dharuhera", "type": "other", "poi_category": "general"}, {"id": 1186, "client_id": "CLIENT_001", "poi_name": "MERIDIAN COMPU, Faridabad", "latitude": 28.4097044, "longitude": 77.4033518, "radius_meters": 1500, "linked_vehicle": null, "linked_gps_time": null, "linked_distance_m": null, "city": "Faridabad", "address": "Sector 29 Faridabad Ground Floor and First Floor SCF-51 HUDA", "pin_code": "121008", "state": "Faridabad", "type": "other", "poi_category": "general"}, {"id": 1187, "client_id": "CLIENT_001", "poi_name": "METRO TRADING, AGRA", "latitude": 27.2111019, "longitude": 78.0053396, "radius_meters": 1500, "linked_vehicle": null, "linked_gps_time": null, "linked_distance_m": null, "city": "Agra", "address": "7# MANSAROVAR ENCLAVE", "pin_code": "282005", "state": "AGRA", "type": "other", "poi_category": "general"}, {"id": 1188, "client_id": "CLIENT_001", "poi_name": "MITTAL SAFE, PEHOWA", "latitude": 29.9783724, "longitude": 76.5832383, "radius_meters": 1500, "linked_vehicle": null, "linked_gps_time": null, "linked_distance_m": null, "city": "Pehowa", "address": "ALL FLOOR# BUILDING NO- 1#2 MITTAL COMPLEX# BABA DALIP SINGH MARG", "pin_code": "136128", "state": "PEHOWA", "type": "other", "poi_category": "general"}, {"id": 1189, "client_id": "CLIENT_001", "poi_name": "MODERN ELECTRONICS(KAITHAL), KAITHAL", "latitude": 29.7996588, "longitude": 76.3989903, "radius_meters": 1500, "linked_vehicle": null, "linked_gps_time": null, "linked_distance_m": null, "city": "Kaithal", "address": "PARK ROAD", "pin_code": "136027", "state": "KAITHAL", "type": "other", "poi_category": "general"}, {"id": 1190, "client_id": "CLIENT_001", "poi_name": "MODERN ELECTRONICS-CSD, KAITHAL", "latitude": 29.7996588, "longitude": 76.3989903, "radius_meters": 1500, "linked_vehicle": null, "linked_gps_time": null, "linked_distance_m": null, "city": "Kaithal", "address": "PARK ROAD# KAITHAL HARYANA", "pin_code": "136027", "state": "KAITHAL", "type": "other", "poi_category": "general"}, {"id": 1191, "client_id": "CLIENT_001", "poi_name": "MOHIT TRADERS, FARIDABAD", "latitude": 28.4031478, "longitude": 77.3105561, "radius_meters": 1500, "linked_vehicle": null, "linked_gps_time": null, "linked_distance_m": null, "city": "Faridabad", "address": "1079 SEC 23 A# FARIDABAD# HARYANA#121001", "pin_code": "121001", "state": "Faridabad", "type": "other", "poi_category": "general"}, {"id": 1192, "client_id": "CLIENT_001", "poi_name": "MOTI LAL SONS, Hissar", "latitude": 29.0444205, "longitude": 75.6341317, "radius_meters": 1500, "linked_vehicle": null, "linked_gps_time": null, "linked_distance_m": null, "city": "Hisar", "address": "MOHALLA KAYSTAN HISAR", "pin_code": "125001", "state": "Hissar", "type": "other", "poi_category": "general"}, {"id": 1193, "client_id": "CLIENT_001", "poi_name": "MUKESH ELECTRONICS, Hissar", "latitude": 29.1155934, "longitude": 75.1835578, "radius_meters": 1500, "linked_vehicle": null, "linked_gps_time": null, "linked_distance_m": null, "city": "Hisar", "address": "BHAGAT SINGH ROAD HANSI", "pin_code": "125033", "state": "Hissar", "type": "other", "poi_category": "general"}, {"id": 1194, "client_id": "CLIENT_001", "poi_name": "Makker Electronics, TAURU", "latitude": 28.2109261, "longitude": 76.9506404, "radius_meters": 1500, "linked_vehicle": null, "linked_gps_time": null, "linked_distance_m": null, "city": "Taoru", "address": "NEW BUS STAND SHOP 04", "pin_code": "122105", "state": "TAURU", "type": "other", "poi_category": "general"}, {"id": 1195, "client_id": "CLIENT_001", "poi_name": "Ms Pacefic Marketing, Jind", "latitude": 29.3152073, "longitude": 76.314082, "radius_meters": 1500, "linked_vehicle": null, "linked_gps_time": null, "linked_distance_m": null, "city": "Jind", "address": "RANI TALAB ROAD", "pin_code": "126102", "state": "Jind", "type": "other", "poi_category": "general"}, {"id": 1196, "client_id": "CLIENT_001", "poi_name": "NAIN ELECTRICALS, NARWANA", "latitude": 29.5830598, "longitude": 76.0754066, "radius_meters": 1500, "linked_vehicle": null, "linked_gps_time": null, "linked_distance_m": null, "city": "Narwana", "address": "VISHAVKARMA CHOWK NEAR LIC BUILDING", "pin_code": "126116", "state": "NARWANA", "type": "other", "poi_category": "general"}, {"id": 1197, "client_id": "CLIENT_001", "poi_name": "NEW SAMRAT ELECTRONICS, Faridabad", "latitude": 28.4031478, "longitude": 77.3105561, "radius_meters": 1500, "linked_vehicle": null, "linked_gps_time": null, "linked_distance_m": null, "city": "Faridabad", "address": "GROUND FLOOR 573 574 NIT", "pin_code": "121001", "state": "Faridabad", "type": "other", "poi_category": "general"}, {"id": 1198, "client_id": "CLIENT_001", "poi_name": "NHL DISTRIBUTION, GURGAON", "latitude": 28.4890874, "longitude": 77.0111572, "radius_meters": 1500, "linked_vehicle": null, "linked_gps_time": null, "linked_distance_m": null, "city": "Gurugram", "address": "KHASRA NO-1367/601-3 KHANDSA ROAD", "pin_code": "122001", "state": "Gurgaon", "type": "tertiary", "poi_category": "general"}, {"id": 1199, "client_id": "CLIENT_001", "poi_name": "NIDRA AIR CONDITIONING, Gurgaon", "latitude": 28.4808629, "longitude": 77.0848883, "radius_meters": 1500, "linked_vehicle": null, "linked_gps_time": null, "linked_distance_m": null, "city": "Gurugram", "address": "39/2-39/3# Near Goga Mandir# Islampur# Gurugram#", "pin_code": "122018", "state": "Gurgaon", "type": "other", "poi_category": "general"}, {"id": 1200, "client_id": "CLIENT_001", "poi_name": "New Ashu TV Center, INDRI", "latitude": 29.8920575, "longitude": 77.0910015, "radius_meters": 1500, "linked_vehicle": null, "linked_gps_time": null, "linked_distance_m": null, "city": "Indri", "address": "NEW ASHU TV CENTER NEAR DEVI MANDIR", "pin_code": "132041", "state": "INDRI", "type": "other", "poi_category": "general"}, {"id": 1201, "client_id": "CLIENT_001", "poi_name": "OM SALES CORPORATION, SIRSA", "latitude": 29.5372849, "longitude": 75.0377649, "radius_meters": 1500, "linked_vehicle": null, "linked_gps_time": null, "linked_distance_m": null, "city": "Sirsa", "address": "NEAR CHAWLA MEDICAL HALL OPPOSITE CIVIL HOSPITAL", "pin_code": "125055", "state": "SIRSA", "type": "tertiary", "poi_category": "general"}, {"id": 1202, "client_id": "CLIENT_001", "poi_name": "ONE-TIME IN GURGAON, Faridabad", "latitude": 28.4097044, "longitude": 77.4033518, "radius_meters": 1500, "linked_vehicle": null, "linked_gps_time": null, "linked_distance_m": null, "city": "Faridabad", "address": "Flat No. 001# Tower-A6#", "pin_code": "121002", "state": "Faridabad", "type": "other", "poi_category": "general"}, {"id": 1203, "client_id": "CLIENT_001", "poi_name": "Om Sales Corporation, Karnal", "latitude": 29.6951152, "longitude": 76.9698292, "radius_meters": 1500, "linked_vehicle": null, "linked_gps_time": null, "linked_distance_m": null, "city": "Karnal", "address": "DCColonyRajinder Nagar", "pin_code": "132001", "state": "Karnal", "type": "other", "poi_category": "general"}, {"id": 1204, "client_id": "CLIENT_001", "poi_name": "PACT BUSINESS, Gurgaon", "latitude": 28.4808629, "longitude": 77.0848883, "radius_meters": 1500, "linked_vehicle": null, "linked_gps_time": null, "linked_distance_m": null, "city": "Gurugram", "address": "D-701# Block D# 7th Floor# # Sector 110a Tashee Capital", "pin_code": "122017", "state": "Gurgaon", "type": "other", "poi_category": "general"}, {"id": 1205, "client_id": "CLIENT_001", "poi_name": "PANKAJ ENTERPRISES, GURUGRAM", "latitude": 28.4808629, "longitude": 77.0848883, "radius_meters": 1500, "linked_vehicle": null, "linked_gps_time": null, "linked_distance_m": null, "city": "Gurugram", "address": "MAIN SULTANPUR ROAD FARRUKH NAGAR", "pin_code": "122506", "state": "Gurugram", "type": "other", "poi_category": "general"}, {"id": 1206, "client_id": "CLIENT_001", "poi_name": "PARAS ELECTRONICS, PANIPAT", "latitude": 29.3912753, "longitude": 76.9771675, "radius_meters": 1500, "linked_vehicle": null, "linked_gps_time": null, "linked_distance_m": null, "city": "Panipat", "address": "NEAR RED LIGHT CHOWK OPP. RELIANCE FOOTWEAR", "pin_code": "132103", "state": "Panipat", "type": "other", "poi_category": "general"}, {"id": 1207, "client_id": "CLIENT_001", "poi_name": "PAWAN ELECTRONICS, MAHENDRAGARH", "latitude": 28.1326971, "longitude": 76.1697448, "radius_meters": 1500, "linked_vehicle": null, "linked_gps_time": null, "linked_distance_m": null, "city": "Mahendragarh", "address": "POTA ROAD# SEHLANG MAHENDRAGARH", "pin_code": "123027", "state": "MAHENDRAGARH", "type": "other", "poi_category": "general"}, {"id": 1208, "client_id": "CLIENT_001", "poi_name": "POLYSHRI PRIVATE, MANESAR# GURGAON", "latitude": 28.3681754, "longitude": 76.8914586, "radius_meters": 1500, "linked_vehicle": null, "linked_gps_time": null, "linked_distance_m": null, "city": "Gurugram", "address": "Amazon Seller Services Private Limited RECT/KILLA NOS", "pin_code": "122413", "state": "Gurgaon", "type": "other", "poi_category": "general"}, {"id": 1209, "client_id": "CLIENT_001", "poi_name": "POOJA ENTERPRISES, BAHADURGARH", "latitude": 28.6933239, "longitude": 76.9332373, "radius_meters": 1500, "linked_vehicle": null, "linked_gps_time": null, "linked_distance_m": null, "city": "Bahadurgarh", "address": "PALIKA BAZAR# 42 RAILWAY ROAD# BAHADURGARH", "pin_code": "124507", "state": "BAHADURGARH", "type": "other", "poi_category": "general"}, {"id": 1210, "client_id": "CLIENT_001", "poi_name": "Paras Malik, Karnal", "latitude": 29.6951152, "longitude": 76.9698292, "radius_meters": 1500, "linked_vehicle": null, "linked_gps_time": null, "linked_distance_m": null, "city": "Karnal", "address": "ITI Chowk", "pin_code": "132001", "state": "Karnal", "type": "other", "poi_category": "general"}, {"id": 1211, "client_id": "CLIENT_001", "poi_name": "R. P. TRADING, AMBALA", "latitude": 30.3843674, "longitude": 76.770421, "radius_meters": 1500, "linked_vehicle": null, "linked_gps_time": null, "linked_distance_m": null, "city": "Ambala", "address": "GODOWN NO 99 SENA NAGAR AMBALA CITY", "pin_code": "134003", "state": "Ambala", "type": "tertiary", "poi_category": "general"}, {"id": 1212, "client_id": "CLIENT_001", "poi_name": "RAGHAV TRADING, JIND", "latitude": 29.3152073, "longitude": 76.314082, "radius_meters": 1500, "linked_vehicle": null, "linked_gps_time": null, "linked_distance_m": null, "city": "Jind", "address": "GODOWN NO 1 2 AARA ROAD# BEHIND SKS FARMS", "pin_code": "126102", "state": "Jind", "type": "other", "poi_category": "general"}, {"id": 1213, "client_id": "CLIENT_001", "poi_name": "RAI ELECTRONIC, JALANDHAR", "latitude": 31.3323762, "longitude": 75.576889, "radius_meters": 1500, "linked_vehicle": null, "linked_gps_time": null, "linked_distance_m": null, "city": "Jalandhar", "address": "VPO PHOLRIWAL", "pin_code": "144022", "state": "JALANDHAR", "type": "other", "poi_category": "general"}, {"id": 1214, "client_id": "CLIENT_001", "poi_name": "RAJ ELECTRONICS#, FARIDABAD", "latitude": 28.4097044, "longitude": 77.4033518, "radius_meters": 1500, "linked_vehicle": null, "linked_gps_time": null, "linked_distance_m": null, "city": "Faridabad", "address": "SHOP NO 11 HANUMAN NAGAR NEAR BY GALI NO 3", "pin_code": "121002", "state": "Faridabad", "type": "tertiary", "poi_category": "general"}, {"id": 1215, "client_id": "CLIENT_001", "poi_name": "RAJA AUTO RADIO, MAHENDERGARH", "latitude": 28.2726226, "longitude": 76.1493925, "radius_meters": 1500, "linked_vehicle": null, "linked_gps_time": null, "linked_distance_m": null, "city": "Mahendragarh", "address": "SHOP NO 2 AND 3 GANDHI MARKET MAHENDERGARH", "pin_code": "123029", "state": "MAHENDERGARH", "type": "other", "poi_category": "general"}, {"id": 1216, "client_id": "CLIENT_001", "poi_name": "RAJA AUTO RADIO-CSD, MAHENDERGARH", "latitude": 28.2726226, "longitude": 76.1493925, "radius_meters": 1500, "linked_vehicle": null, "linked_gps_time": null, "linked_distance_m": null, "city": "Mahendragarh", "address": "SHOP NO 2 AND 3# GANDHI MARKET MAHENDERGARH# HARYANA", "pin_code": "123029", "state": "MAHENDERGARH", "type": "other", "poi_category": "general"}, {"id": 1217, "client_id": "CLIENT_001", "poi_name": "RAJESH ELECTRONICS, Bhiwani", "latitude": 28.7931703, "longitude": 76.1391283, "radius_meters": 1500, "linked_vehicle": null, "linked_gps_time": null, "linked_distance_m": null, "city": "Bhiwani", "address": "NEAR BUS STAND JHOJHU KALAN", "pin_code": "127310", "state": "Bhiwani", "type": "other", "poi_category": "general"}, {"id": 1218, "client_id": "CLIENT_001", "poi_name": "RAJINDRA ELECTRONICS, KARNAL", "latitude": 29.6951152, "longitude": 76.9698292, "radius_meters": 1500, "linked_vehicle": null, "linked_gps_time": null, "linked_distance_m": null, "city": "Karnal", "address": "SHOP NO 7 OPP RANDHIR CINEMA", "pin_code": "132001", "state": "Karnal", "type": "other", "poi_category": "general"}, {"id": 1219, "client_id": "CLIENT_001", "poi_name": "RAJMAHAL FURNITURE, JHAJJAR", "latitude": 28.5964461, "longitude": 76.6505366, "radius_meters": 1500, "linked_vehicle": null, "linked_gps_time": null, "linked_distance_m": null, "city": "Jhajjar", "address": "ARYA NAGAR JHAJJAR ARYA NAGAR JHAJJAR", "pin_code": "124103", "state": "Jhajjar", "type": "tertiary", "poi_category": "general"}, {"id": 1220, "client_id": "CLIENT_001", "poi_name": "RAMA ELECTRONICS(GOHANA), GOHANA", "latitude": 29.1311843, "longitude": 76.7019911, "radius_meters": 1500, "linked_vehicle": null, "linked_gps_time": null, "linked_distance_m": null, "city": "Gohana", "address": "OPP CANARA BANK CIVIL ROAD", "pin_code": "131301", "state": "GOHANA", "type": "tertiary", "poi_category": "general"}, {"id": 1221, "client_id": "CLIENT_001", "poi_name": "RAMA ENTERPRISES, Hissar", "latitude": 29.1155934, "longitude": 75.1835578, "radius_meters": 1500, "linked_vehicle": null, "linked_gps_time": null, "linked_distance_m": null, "city": "Hisar", "address": "near AVInternational school", "pin_code": "125055", "state": "Hissar", "type": "tertiary", "poi_category": "general"}, {"id": 1222, "client_id": "CLIENT_001", "poi_name": "RAMA ENTERPRISES, SIRSA", "latitude": 29.5372849, "longitude": 75.0377649, "radius_meters": 1500, "linked_vehicle": null, "linked_gps_time": null, "linked_distance_m": null, "city": "Sirsa", "address": "RAMA ENTERPRISES SIRSA", "pin_code": "125055", "state": "SIRSA", "type": "tertiary", "poi_category": "general"}, {"id": 1223, "client_id": "CLIENT_001", "poi_name": "REFRIGERATION TRADE, Faridabad", "latitude": 28.4097044, "longitude": 77.4033518, "radius_meters": 1500, "linked_vehicle": null, "linked_gps_time": null, "linked_distance_m": null, "city": "Faridabad", "address": "H.no 250 sector 31 Faridabad haryana 121008 +91 98990 65635", "pin_code": "121008", "state": "Faridabad", "type": "other", "poi_category": "general"}, {"id": 1224, "client_id": "CLIENT_001", "poi_name": "ROHTASH KUMAR, NARNAUL", "latitude": 28.0438456, "longitude": 76.1062015, "radius_meters": 1500, "linked_vehicle": null, "linked_gps_time": null, "linked_distance_m": null, "city": "Narnaul", "address": "MAHAVIR CHOWK", "pin_code": "123001", "state": "NARNAUL", "type": "tertiary", "poi_category": "general"}, {"id": 1226, "client_id": "CLIENT_001", "poi_name": "ROYAL ELECTRONICS, HISSAR", "latitude": 29.2461563, "longitude": 75.7798173, "radius_meters": 1500, "linked_vehicle": null, "linked_gps_time": null, "linked_distance_m": null, "city": "Hisar", "address": "33 GURU JAMBEHSWAR MARKET", "pin_code": "125001", "state": "HISSAR", "type": "tertiary", "poi_category": "general"}, {"id": 1227, "client_id": "CLIENT_001", "poi_name": "RUCHIKA ENTERPRISES, REWARI", "latitude": 28.1956468, "longitude": 76.6165179, "radius_meters": 1500, "linked_vehicle": null, "linked_gps_time": null, "linked_distance_m": null, "city": "Rewari", "address": "NEAR SUBZI MANDI NAHAR ROAD KOSLI", "pin_code": "123302", "state": "REWARI", "type": "other", "poi_category": "general"}, {"id": 1228, "client_id": "CLIENT_001", "poi_name": "Reliance Retail, FARRUKHNAGAR", "latitude": 28.467225, "longitude": 76.8253658, "radius_meters": 2000, "linked_vehicle": null, "linked_gps_time": null, "linked_distance_m": null, "city": "Pataudi", "address": "Co Indo Space Industrial Park Pvt Ltd", "pin_code": "122506", "state": "HARYANA", "type": "secondary", "poi_category": "electronics"}, {"id": 1229, "client_id": "CLIENT_001", "poi_name": "Reliance Retail, JHAJJAR", "latitude": 28.5964461, "longitude": 76.6505366, "radius_meters": 1500, "linked_vehicle": null, "linked_gps_time": null, "linked_distance_m": null, "city": "Jhajjar", "address": "C/o Indo Space Industrial Park Pvt Ltd Vlg Pahasour Faizabad PO Badli Jhajjar", "pin_code": "124105", "state": "Jhajjar", "type": "tertiary", "poi_category": "general"}, {"id": 1230, "client_id": "CLIENT_001", "poi_name": "Reliance Retail, Gurgaon", "latitude": 28.4808629, "longitude": 77.0848883, "radius_meters": 1500, "linked_vehicle": null, "linked_gps_time": null, "linked_distance_m": null, "city": "Gurugram", "address": "Distribution Centre Block I Embassy Industrial Park", "pin_code": "122506", "state": "Gurgaon", "type": "tertiary", "poi_category": "general"}, {"id": 1231, "client_id": "CLIENT_001", "poi_name": "S. N. ENTERPRISES., AMBALA", "latitude": 30.3843674, "longitude": 76.770421, "radius_meters": 1500, "linked_vehicle": null, "linked_gps_time": null, "linked_distance_m": null, "city": "Ambala", "address": "BUILDING NO 147 FIRST FLOOR NEAR GOD PUMP AND PIPES", "pin_code": "134003", "state": "Ambala", "type": "other", "poi_category": "general"}, {"id": 1232, "client_id": "CLIENT_001", "poi_name": "SAHIL ELECTRONICS, Kurukshetra", "latitude": 29.9693747, "longitude": 76.8482787, "radius_meters": 1500, "linked_vehicle": null, "linked_gps_time": null, "linked_distance_m": null, "city": "Kurukshetra", "address": "MAIN ROAD Pundri", "pin_code": "136026", "state": "Kurukshetra", "type": "other", "poi_category": "general"}, {"id": 1233, "client_id": "CLIENT_001", "poi_name": "SAHIL ELECTRONICS, PUNDRI", "latitude": 29.7722213, "longitude": 76.5621393, "radius_meters": 1500, "linked_vehicle": null, "linked_gps_time": null, "linked_distance_m": null, "city": "Pundri", "address": "MAIN TANKI ROAD HUDA MARKET", "pin_code": "136026", "state": "PUNDRI", "type": "other", "poi_category": "general"}, {"id": 1234, "client_id": "CLIENT_001", "poi_name": "SAJJAN ELECTRONICS, SONIPAT", "latitude": 28.9953758, "longitude": 77.0233627, "radius_meters": 1500, "linked_vehicle": null, "linked_gps_time": null, "linked_distance_m": null, "city": "Sonipat", "address": "SAMPLA ROAD KHARKHODA", "pin_code": "131402", "state": "SONIPAT", "type": "other", "poi_category": "general"}, {"id": 1235, "client_id": "CLIENT_001", "poi_name": "SAMRAT ELECTRONICS, GURUGRAM", "latitude": 28.4808629, "longitude": 77.0848883, "radius_meters": 1500, "linked_vehicle": null, "linked_gps_time": null, "linked_distance_m": null, "city": "Gurugram", "address": "505/6 NEAR RAVI DASS MANDIR", "pin_code": "122001", "state": "Gurugram", "type": "other", "poi_category": "general"}, {"id": 1236, "client_id": "CLIENT_001", "poi_name": "SAMRAT INTERNATIONAL, GURGAON", "latitude": 28.4890874, "longitude": 77.0111572, "radius_meters": 1500, "linked_vehicle": null, "linked_gps_time": null, "linked_distance_m": null, "city": "Gurugram", "address": "SHOP- 25# JACUBPURA ROAD# GURUGRAM", "pin_code": "122001", "state": "Gurgaon", "type": "other", "poi_category": "general"}, {"id": 1237, "client_id": "CLIENT_001", "poi_name": "SANDAL TRADERS, HISAR", "latitude": 29.1562688, "longitude": 75.7292303, "radius_meters": 1500, "linked_vehicle": null, "linked_gps_time": null, "linked_distance_m": null, "city": "Hisar", "address": "SHOP NO 8# JAT SCHOOL MARKET FAWARA CHOWK", "pin_code": "125001", "state": "Hisar", "type": "tertiary", "poi_category": "general"}, {"id": 1238, "client_id": "CLIENT_001", "poi_name": "SANWARIA ELECTRONICS, JIND", "latitude": 29.3152073, "longitude": 76.314082, "radius_meters": 1500, "linked_vehicle": null, "linked_gps_time": null, "linked_distance_m": null, "city": "Jind", "address": "NEAR IOC PETROL PUMP BHIWANI ROAD", "pin_code": "126102", "state": "Jind", "type": "other", "poi_category": "general"}, {"id": 1239, "client_id": "CLIENT_001", "poi_name": "SATYAM ELECTRONICS, Kurukshetra", "latitude": 29.9693747, "longitude": 76.8482787, "radius_meters": 1500, "linked_vehicle": null, "linked_gps_time": null, "linked_distance_m": null, "city": "Kurukshetra", "address": "KC MARKET CHATARAWAS ROAD", "pin_code": "136027", "state": "Kurukshetra", "type": "other", "poi_category": "general"}, {"id": 1240, "client_id": "CLIENT_001", "poi_name": "SATYAM TRADERS, SONIPAT", "latitude": 28.9953758, "longitude": 77.0233627, "radius_meters": 1500, "linked_vehicle": null, "linked_gps_time": null, "linked_distance_m": null, "city": "Sonipat", "address": "HBC H. NO.1499 NEAR GANDHI CHOWK", "pin_code": "131001", "state": "SONIPAT", "type": "other", "poi_category": "general"}, {"id": 1241, "client_id": "CLIENT_001", "poi_name": "SHAKTI ENTERPRISES, Hissar", "latitude": 29.1155934, "longitude": 75.1835578, "radius_meters": 1500, "linked_vehicle": null, "linked_gps_time": null, "linked_distance_m": null, "city": "Hisar", "address": "RORI BAJAAR", "pin_code": "125055", "state": "Hissar", "type": "tertiary", "poi_category": "general"}, {"id": 1242, "client_id": "CLIENT_001", "poi_name": "SHAKUNTLA FURNITURE, MAHENDERGARH", "latitude": 28.2726226, "longitude": 76.1493925, "radius_meters": 1500, "linked_vehicle": null, "linked_gps_time": null, "linked_distance_m": null, "city": "Mahendragarh", "address": "1236# CINEMA ROAD MAHENDERGARH", "pin_code": "123029", "state": "MAHENDERGARH", "type": "other", "poi_category": "general"}, {"id": 1243, "client_id": "CLIENT_001", "poi_name": "SHAKUTALS FURNITURE, MAHENDERGARH", "latitude": 28.2726226, "longitude": 76.1493925, "radius_meters": 1500, "linked_vehicle": null, "linked_gps_time": null, "linked_distance_m": null, "city": "Mahendragarh", "address": "CINEMA ROAD MAIN MARKET", "pin_code": "123029", "state": "MAHENDERGARH", "type": "other", "poi_category": "general"}, {"id": 1244, "client_id": "CLIENT_001", "poi_name": "SHANTI SALES, FARIDABAD", "latitude": 28.4031478, "longitude": 77.3105561, "radius_meters": 1500, "linked_vehicle": null, "linked_gps_time": null, "linked_distance_m": null, "city": "Faridabad", "address": "SHOP NO 1074# JAWAHAR COLONY GURUDWARA ROAD FARIDABAD", "pin_code": "121001", "state": "Faridabad", "type": "other", "poi_category": "general"}, {"id": 1245, "client_id": "CLIENT_001", "poi_name": "SHIV ELECTRONICS, HODEL", "latitude": 27.9785769, "longitude": 77.3436017, "radius_meters": 1500, "linked_vehicle": null, "linked_gps_time": null, "linked_distance_m": null, "city": "Hodel", "address": "G.T ROAD#OPP. STATE BANK OF PATIALA", "pin_code": "121106", "state": "HODEL", "type": "tertiary", "poi_category": "general"}, {"id": 1246, "client_id": "CLIENT_001", "poi_name": "SHIV ELECTRONICS, Hodal", "latitude": 27.9785769, "longitude": 77.3436017, "radius_meters": 1500, "linked_vehicle": null, "linked_gps_time": null, "linked_distance_m": null, "city": "Hodal", "address": "PALWAL", "pin_code": "121106", "state": "Hodal", "type": "other", "poi_category": "general"}, {"id": 1247, "client_id": "CLIENT_001", "poi_name": "SHREE BALAJI, Jind", "latitude": 29.3152073, "longitude": 76.314082, "radius_meters": 1500, "linked_vehicle": null, "linked_gps_time": null, "linked_distance_m": null, "city": "Jind", "address": "KUNDAN CENEMA", "pin_code": "126102", "state": "Jind", "type": "other", "poi_category": "general"}, {"id": 1248, "client_id": "CLIENT_001", "poi_name": "SHREE ENTERPRISES, NORTH WEST DELHI", "latitude": 28.6730994, "longitude": 77.1647662, "radius_meters": 1500, "linked_vehicle": null, "linked_gps_time": null, "linked_distance_m": null, "city": "Delhi", "address": "PLOT NO 1593 GROUND FLOOR GROUND FLOOR", "pin_code": "110009", "state": "NORTH WEST DELHI", "type": "other", "poi_category": "general"}, {"id": 1249, "client_id": "CLIENT_001", "poi_name": "SHREE JEE ELECTRONICS, FARIDABAD", "latitude": 28.4031478, "longitude": 77.3105561, "radius_meters": 1500, "linked_vehicle": null, "linked_gps_time": null, "linked_distance_m": null, "city": "Faridabad", "address": "SHOP NO 105#NEW SABJI MANDI#SEC-16 FARIDABAD", "pin_code": "121001", "state": "Faridabad", "type": "tertiary", "poi_category": "general"}, {"id": 1250, "client_id": "CLIENT_001", "poi_name": "SHREE JEE ELECTRONICS, Kurukshetra", "latitude": 29.9693747, "longitude": 76.8482787, "radius_meters": 1500, "linked_vehicle": null, "linked_gps_time": null, "linked_distance_m": null, "city": "Kurukshetra", "address": "Near CSD Canteen# Karnal Road Pipli# Kurukshetra", "pin_code": "136118", "state": "Kurukshetra", "type": "tertiary", "poi_category": "general"}, {"id": 1251, "client_id": "CLIENT_001", "poi_name": "SHREE JEE ELECTRONICS, PATAUDI", "latitude": 28.325914, "longitude": 76.7787023, "radius_meters": 100, "linked_vehicle": null, "linked_gps_time": null, "linked_distance_m": null, "city": "Pataudi", "address": "OPP CSD CANTEEN#GURGAON ROAD PATAUDI", "pin_code": "122503", "state": "PATAUDI", "type": "tertiary", "poi_category": "general"}, {"id": 1252, "client_id": "CLIENT_001", "poi_name": "SHREE JEE ELECTRONICS, ROHTAK", "latitude": 28.9010899, "longitude": 76.5801935, "radius_meters": 1500, "linked_vehicle": null, "linked_gps_time": null, "linked_distance_m": null, "city": "Rohtak", "address": "9 PALIKA BAZAR", "pin_code": "124001", "state": "ROHTAK", "type": "tertiary", "poi_category": "general"}, {"id": 1253, "client_id": "CLIENT_001", "poi_name": "SHREE JEE ELECTRONICS-CSD, Faridabad", "latitude": 28.4097044, "longitude": 77.4033518, "radius_meters": 1500, "linked_vehicle": null, "linked_gps_time": null, "linked_distance_m": null, "city": "Faridabad", "address": "H.No.6# Block-6# Ground Floor# Front Side# Spring Field Colony# Sector-31# Faridabad", "pin_code": "121003", "state": "Faridabad", "type": "other", "poi_category": "general"}, {"id": 1254, "client_id": "CLIENT_001", "poi_name": "SHREE JEE ELECTRONICS-CSD, GURGAON", "latitude": 28.4890874, "longitude": 77.0111572, "radius_meters": 1500, "linked_vehicle": null, "linked_gps_time": null, "linked_distance_m": null, "city": "Gurugram", "address": "CIVIL LINE SECTOR 15 GURGAON MOB- 9416058855", "pin_code": "122001", "state": "Gurgaon", "type": "tertiary", "poi_category": "general"}, {"id": 1255, "client_id": "CLIENT_001", "poi_name": "SHREE JEE ELECTRONICS-CSD, Gurgaon", "latitude": 28.4646148, "longitude": 77.0299194, "radius_meters": 1500, "linked_vehicle": null, "linked_gps_time": null, "linked_distance_m": null, "city": "Gurugram", "address": "SS Linden# B-14 1st floor Sector -84 Gurgaon 122204 Mpb 9990833339", "pin_code": "122204", "state": "Gurgaon", "type": "tertiary", "poi_category": "general"}, {"id": 1256, "client_id": "CLIENT_001", "poi_name": "SHREE JEE ELECTRONICS-CSD, JHAJAR", "latitude": 28.5964461, "longitude": 76.6505366, "radius_meters": 1500, "linked_vehicle": null, "linked_gps_time": null, "linked_distance_m": null, "city": "Jhajjar", "address": "C2 NEAR NEELKANTH HOTEL BYEPASS ROAD JHAJAR HARAYANA", "pin_code": "124103", "state": "JHAJAR", "type": "tertiary", "poi_category": "general"}, {"id": 1257, "client_id": "CLIENT_001", "poi_name": "SHREE JEE ELECTRONICS-CSD, Karnal", "latitude": 29.5182563, "longitude": 76.9732582, "radius_meters": 1500, "linked_vehicle": null, "linked_gps_time": null, "linked_distance_m": null, "city": "Karnal", "address": "H.No.145# Ashok Vihar# Madhuban# Karnal# Haryana-13203 Mobi Mobile-9910679060", "pin_code": "132037", "state": "Karnal", "type": "tertiary", "poi_category": "general"}, {"id": 1258, "client_id": "CLIENT_001", "poi_name": "SHREE JEE ELECTRONICS-CSD, ROHTAK", "latitude": 28.9010899, "longitude": 76.5801935, "radius_meters": 1500, "linked_vehicle": null, "linked_gps_time": null, "linked_distance_m": null, "city": "Rohtak", "address": "SHOP NO. -9## PALIKA BAZAR CIVIL ROAD## ROHTAK# HARYANA", "pin_code": "124001", "state": "ROHTAK", "type": "other", "poi_category": "general"}, {"id": 1259, "client_id": "CLIENT_001", "poi_name": "SHREE RAM MOBILES, Bhiwani", "latitude": 28.7931703, "longitude": 76.1391283, "radius_meters": 1500, "linked_vehicle": null, "linked_gps_time": null, "linked_distance_m": null, "city": "Bhiwani", "address": "OLD BUS STAND", "pin_code": "127046", "state": "Bhiwani", "type": "other", "poi_category": "general"}, {"id": 1260, "client_id": "CLIENT_001", "poi_name": "SHREE SAI ENTERPRISES., KURUKSHETRA", "latitude": 29.9693747, "longitude": 76.8482787, "radius_meters": 1500, "linked_vehicle": null, "linked_gps_time": null, "linked_distance_m": null, "city": "Kurukshetra", "address": "PLOT NO 38 SECTOR-2 INDUSTRIAL AREA", "pin_code": "136118", "state": "KURUKSHETRA", "type": "other", "poi_category": "general"}, {"id": 1261, "client_id": "CLIENT_001", "poi_name": "SHRI BANKEY BIHARI, KARNAL", "latitude": 29.6951152, "longitude": 76.9698292, "radius_meters": 1500, "linked_vehicle": null, "linked_gps_time": null, "linked_distance_m": null, "city": "Karnal", "address": "SHOP NO 403 NEW GRAIN MARKET ROAD", "pin_code": "132001", "state": "Karnal", "type": "other", "poi_category": "general"}, {"id": 1262, "client_id": "CLIENT_001", "poi_name": "SHRI GANPATI, FARIDABAD", "latitude": 28.4097044, "longitude": 77.4033518, "radius_meters": 1500, "linked_vehicle": null, "linked_gps_time": null, "linked_distance_m": null, "city": "Faridabad", "address": "NEAR KISHAN DHARAM KANTA MOHNA ROAD", "pin_code": "121004", "state": "Faridabad", "type": "other", "poi_category": "general"}, {"id": 1263, "client_id": "CLIENT_001", "poi_name": "SM GADGET DEALS, NEW DELHI", "latitude": 28.6138954, "longitude": 77.2090057, "radius_meters": 1500, "linked_vehicle": null, "linked_gps_time": null, "linked_distance_m": null, "city": "Delhi", "address": "PLOT NO WZ 658C SADH NAGAR", "pin_code": "110045", "state": "NEW DELHI", "type": "other", "poi_category": "general"}, {"id": 1264, "client_id": "CLIENT_001", "poi_name": "SUBHASH RADIO, Karnal", "latitude": 29.7255766, "longitude": 76.9106924, "radius_meters": 1500, "linked_vehicle": null, "linked_gps_time": null, "linked_distance_m": null, "city": "Karnal", "address": "SHIV CHOWK", "pin_code": "126102", "state": "Karnal", "type": "tertiary", "poi_category": "general"}, {"id": 1265, "client_id": "CLIENT_001", "poi_name": "Soni Trading, Kurukshetra", "latitude": 29.9693747, "longitude": 76.8482787, "radius_meters": 1500, "linked_vehicle": null, "linked_gps_time": null, "linked_distance_m": null, "city": "Kurukshetra", "address": "Near Old Bus Stand", "pin_code": "136027", "state": "Kurukshetra", "type": "tertiary", "poi_category": "general"}, {"id": 1266, "client_id": "CLIENT_001", "poi_name": "Super Cool Electronics, Badshahpur", "latitude": 28.3932757, "longitude": 77.0484201, "radius_meters": 1500, "linked_vehicle": null, "linked_gps_time": null, "linked_distance_m": null, "city": "Badshahpur", "address": "BADSHAHPUR", "pin_code": "122101", "state": "Badshahpur", "type": "tertiary", "poi_category": "general"}, {"id": 1267, "client_id": "CLIENT_001", "poi_name": "TANUJ ELECTRONICS, KURUKSHETRA", "latitude": 29.9693747, "longitude": 76.8482787, "radius_meters": 1500, "linked_vehicle": null, "linked_gps_time": null, "linked_distance_m": null, "city": "Kurukshetra", "address": "G S MARKET SHOP NO-11-12", "pin_code": "136118", "state": "KURUKSHETRA", "type": "other", "poi_category": "general"}, {"id": 1268, "client_id": "CLIENT_001", "poi_name": "TANUJ ELECTRONICS-CSD, KURUKSHETRA", "latitude": 29.9693747, "longitude": 76.8482787, "radius_meters": 1500, "linked_vehicle": null, "linked_gps_time": null, "linked_distance_m": null, "city": "Kurukshetra", "address": "RAILWAY ROAD KURUKSHETRA# HARYANA", "pin_code": "136118", "state": "KURUKSHETRA", "type": "other", "poi_category": "general"}, {"id": 1269, "client_id": "CLIENT_001", "poi_name": "THAKRAL ELECTRONICS, SHAHABAD", "latitude": 17.1219321, "longitude": 76.9433966, "radius_meters": 1500, "linked_vehicle": null, "linked_gps_time": null, "linked_distance_m": null, "city": "Shahabad", "address": "233# JAGDISH MARG# SHAHABAD MARKANDA", "pin_code": "136135", "state": "SHAHABAD", "type": "tertiary", "poi_category": "general"}, {"id": 1270, "client_id": "CLIENT_001", "poi_name": "THE NATIONAL, KAITHAL", "latitude": 29.7996588, "longitude": 76.3989903, "radius_meters": 1500, "linked_vehicle": null, "linked_gps_time": null, "linked_distance_m": null, "city": "Kaithal", "address": "CHOTTI MANDI KAITHAL ROAD", "pin_code": "136034", "state": "KAITHAL", "type": "tertiary", "poi_category": "general"}, {"id": 1271, "client_id": "CLIENT_001", "poi_name": "TRPAHAL POWER, Gurugram", "latitude": 28.4808629, "longitude": 77.0848883, "radius_meters": 1500, "linked_vehicle": null, "linked_gps_time": null, "linked_distance_m": null, "city": "Gurugram", "address": "74/18 Godown 3 Daulatabad Road Ross Clinics", "pin_code": "122006", "state": "Gurugram", "type": "other", "poi_category": "general"}, {"id": 1272, "client_id": "CLIENT_001", "poi_name": "UDIT TRADERS, SONIPAT", "latitude": 28.9953758, "longitude": 77.0233627, "radius_meters": 1500, "linked_vehicle": null, "linked_gps_time": null, "linked_distance_m": null, "city": "Sonipat", "address": "H.NO-84/22 EHIND KATH MANDI# ARE WALI GALI", "pin_code": "131001", "state": "SONIPAT", "type": "tertiary", "poi_category": "general"}, {"id": 1273, "client_id": "CLIENT_001", "poi_name": "UNI ELECTRO, FARIDABAD", "latitude": 28.4031478, "longitude": 77.3105561, "radius_meters": 1500, "linked_vehicle": null, "linked_gps_time": null, "linked_distance_m": null, "city": "Faridabad", "address": "SHOP NO 1074 JAWAHAR COLONY", "pin_code": "121001", "state": "Faridabad", "type": "tertiary", "poi_category": "general"}, {"id": 1274, "client_id": "CLIENT_001", "poi_name": "UNI ELECTRO, GURGAON", "latitude": 28.4890874, "longitude": 77.0111572, "radius_meters": 1500, "linked_vehicle": null, "linked_gps_time": null, "linked_distance_m": null, "city": "Gurugram", "address": "EP-188 MAIN JACUBPURA ROAD", "pin_code": "122001", "state": "Gurgaon", "type": "other", "poi_category": "general"}, {"id": 1275, "client_id": "CLIENT_001", "poi_name": "Udit Traders, Sonepat", "latitude": 28.99197, "longitude": 77.0342633, "radius_meters": 1500, "linked_vehicle": null, "linked_gps_time": null, "linked_distance_m": null, "city": "Sonipat", "address": "OLD ROHTAK ROAD", "pin_code": "131001", "state": "Sonepat", "type": "other", "poi_category": "general"}, {"id": 1276, "client_id": "CLIENT_001", "poi_name": "V K TRADERS, Faridabad", "latitude": 28.4097044, "longitude": 77.4033518, "radius_meters": 1500, "linked_vehicle": null, "linked_gps_time": null, "linked_distance_m": null, "city": "Faridabad", "address": "V K TRADERS", "pin_code": "121005", "state": "Faridabad", "type": "tertiary", "poi_category": "general"}, {"id": 1277, "client_id": "CLIENT_001", "poi_name": "VASUDHA, JAIPUR", "latitude": 26.9154576, "longitude": 75.8189817, "radius_meters": 1500, "linked_vehicle": null, "linked_gps_time": null, "linked_distance_m": null, "city": "Jaipur", "address": "E-362 ROAD-14 VKI AREA", "pin_code": "302013", "state": "JAIPUR", "type": "other", "poi_category": "general"}, {"id": 1278, "client_id": "CLIENT_001", "poi_name": "VIJAY SALES, FARIDABAD", "latitude": 28.4097044, "longitude": 77.4033518, "radius_meters": 1500, "linked_vehicle": null, "linked_gps_time": null, "linked_distance_m": null, "city": "Faridabad", "address": "Village Fazilpur Jharsa Khasra No. 20/1/1 10/2", "pin_code": "121003", "state": "Faridabad", "type": "other", "poi_category": "general"}, {"id": 1279, "client_id": "CLIENT_001", "poi_name": "VIJAY SALES, Faridabad", "latitude": 28.4097044, "longitude": 77.4033518, "radius_meters": 1500, "linked_vehicle": null, "linked_gps_time": null, "linked_distance_m": null, "city": "Faridabad", "address": "Village Fazilpur Jharsa Khasra No. 20/1/1 10/2", "pin_code": "121003", "state": "Faridabad", "type": "tertiary", "poi_category": "general"}, {"id": 1280, "client_id": "CLIENT_001", "poi_name": "VIJAY SALES, GURGAON", "latitude": 28.4890874, "longitude": 77.0111572, "radius_meters": 1500, "linked_vehicle": null, "linked_gps_time": null, "linked_distance_m": null, "city": "Gurugram", "address": "Village Fazilpur Jharsa Khasra No. 20/1/1 10/2", "pin_code": "122001", "state": "Gurgaon", "type": "other", "poi_category": "general"}, {"id": 1281, "client_id": "CLIENT_001", "poi_name": "VIJAY SALES, Gurugram", "latitude": 28.4808629, "longitude": 77.0848883, "radius_meters": 1500, "linked_vehicle": null, "linked_gps_time": null, "linked_distance_m": null, "city": "Gurugram", "address": "Village Fazilpur Jharsa Khasra No. 20/1/1 10/2", "pin_code": "122101", "state": "Gurugram", "type": "tertiary", "poi_category": "general"}, {"id": 1282, "client_id": "CLIENT_001", "poi_name": "VIKRANT ELECTRONICS, GURGAON", "latitude": 28.4890874, "longitude": 77.0111572, "radius_meters": 1500, "linked_vehicle": null, "linked_gps_time": null, "linked_distance_m": null, "city": "Gurugram", "address": "754-35#GALI NO-1#WEST RAJIV NAGAR", "pin_code": "122001", "state": "Gurgaon", "type": "other", "poi_category": "general"}, {"id": 1283, "client_id": "CLIENT_001", "poi_name": "VISHAL VIDEO, GORAKHPUR", "latitude": 26.6677977, "longitude": 83.3642334, "radius_meters": 1500, "linked_vehicle": null, "linked_gps_time": null, "linked_distance_m": null, "city": "Gorakhpur", "address": "AL- 06# SECTOR - 9# GIDA# GORAKHPUR-", "pin_code": "273209", "state": "GORAKHPUR", "type": "other", "poi_category": "general"}, {"id": 1284, "client_id": "CLIENT_001", "poi_name": "VISHAL VIDEO, LUCKNOW", "latitude": 26.8381, "longitude": 80.9346001, "radius_meters": 1500, "linked_vehicle": null, "linked_gps_time": null, "linked_distance_m": null, "city": "Lucknow", "address": "Dafti Mill Compound Near Tikait Rai Talab", "pin_code": "226004", "state": "LUCKNOW", "type": "other", "poi_category": "general"}, {"id": 1285, "client_id": "CLIENT_001", "poi_name": "VISHAL VIDEO, Varanasi", "latitude": 25.3356491, "longitude": 83.0076292, "radius_meters": 1500, "linked_vehicle": null, "linked_gps_time": null, "linked_distance_m": null, "city": "Varanasi", "address": "Gata No. 399 402# Village Bhadwar# Tehsil Sadar# Kashipur# Varanasi", "pin_code": "221311", "state": "Varanasi", "type": "other", "poi_category": "general"}, {"id": 1286, "client_id": "CLIENT_001", "poi_name": "Vardhman Elctronics, Gurgaon", "latitude": 28.4890874, "longitude": 77.0111572, "radius_meters": 1500, "linked_vehicle": null, "linked_gps_time": null, "linked_distance_m": null, "city": "Gurugram", "address": "Shop No2456", "pin_code": "122001", "state": "Gurgaon", "type": "tertiary", "poi_category": "general"}, {"id": 1287, "client_id": "CLIENT_001", "poi_name": "chopra electronics, RADAUR", "latitude": 30.0434068, "longitude": 77.1854441, "radius_meters": 1500, "linked_vehicle": null, "linked_gps_time": null, "linked_distance_m": null, "city": "Radaur", "address": "NEAR KHADI ASHRAM RADAUR", "pin_code": "135133", "state": "RADAUR", "type": "other", "poi_category": "general"}, {"id": 1288, "client_id": "CLIENT_001", "poi_name": "javid electric, Punhana", "latitude": 27.8637502, "longitude": 77.2051612, "radius_meters": 1500, "linked_vehicle": null, "linked_gps_time": null, "linked_distance_m": null, "city": "Punhana", "address": "NUH MEWAT", "pin_code": "122508", "state": "Punhana", "type": "other", "poi_category": "general"}, {"id": 1289, "client_id": "CLIENT_001", "poi_name": "HAIER APPLIANCES INDIA PVT LIMITED", "latitude": 28.319908951420274, "longitude": 76.78898334503175, "radius_meters": 1500, "linked_vehicle": null, "linked_gps_time": null, "linked_distance_m": null, "city": "Gurugram", "address": "Khasra No. 114/19/1# 19/2# 20/1# 21/2#22/1", "pin_code": "000000", "state": "Haryana", "type": "secondary", "poi_category": "electronics"}, {"id": 1729, "client_id": "CLIENT_001", "poi_name": "Pepsico WH, Gurgaon", "latitude": 28.39682, "longitude": 76.82446, "radius_meters": 1500, "linked_vehicle": null, "linked_gps_time": null, "linked_distance_m": null, "city": "Gurugram", "address": "Unknown", "pin_code": "", "state": "Haryana", "type": "primary", "poi_category": "food"}, {"id": 1730, "client_id": "CLIENT_001", "poi_name": "Haier Factory, Greater Noida", "latitude": 28.46891, "longitude": 77.58573, "radius_meters": 1500, "linked_vehicle": null, "linked_gps_time": null, "linked_distance_m": null, "city": "Greater Noida", "address": "HAIER APPLIANCES INDIA PVT LIMITED", "pin_code": "201310", "state": "Uttar Pradesh", "type": "primary", "poi_category": "general"}, {"id": 1731, "client_id": "CLIENT_001", "poi_name": "HAIER WH GUR 2", "latitude": 28.35406833333333, "longitude": 76.80443555555556, "radius_meters": 1500, "linked_vehicle": null, "linked_gps_time": null, "linked_distance_m": null, "city": "Gurugram", "address": "Lat: 28.35406833333333, Lng: 76.80443555555556", "pin_code": "000000", "state": "Haryana", "type": "secondary", "poi_category": "electronics"}, {"id": 1732, "client_id": "CLIENT_001", "poi_name": "RELIANCE DIGITAL FARUKNAGAR", "latitude": 28.464894, "longitude": 76.79856, "radius_meters": 1500, "linked_vehicle": null, "linked_gps_time": null, "linked_distance_m": null, "city": "Unknown", "address": "Lat: 28.464894, Lng: 76.79856", "pin_code": "000000", "state": "Unknown", "type": "other", "poi_category": "general"}, {"id": 1733, "client_id": "CLIENT_001", "poi_name": "FLIPCART FRKNAGAR", "latitude": 28.482213333333334, "longitude": 76.80485333333333, "radius_meters": 1500, "linked_vehicle": null, "linked_gps_time": null, "linked_distance_m": null, "city": "Unknown", "address": "Lat: 28.482213333333334, Lng: 76.80485333333333", "pin_code": "000000", "state": "Unknown", "type": "tertiary", "poi_category": "general"}, {"id": 2103, "client_id": "CLIENT_001", "poi_name": "Makker Electronics", "latitude": 28.2109261, "longitude": 76.9506404, "radius_meters": 500, "linked_vehicle": null, "linked_gps_time": null, "linked_distance_m": null, "city": "Taoru", "address": "NEW BUS STAND SHOP 04", "pin_code": "122105", "state": "", "type": "other", "poi_category": "general"}, {"id": 2104, "client_id": "CLIENT_001", "poi_name": "Reliance Retail Limited", "latitude": 28.5964461, "longitude": 76.6505366, "radius_meters": 500, "linked_vehicle": null, "linked_gps_time": null, "linked_distance_m": null, "city": "Jhajjar", "address": "Co Indo Space Industrial Park Pvt Ltd", "pin_code": "124105", "state": "Haryana", "type": "tertiary", "poi_category": "general"}, {"id": 2105, "client_id": "CLIENT_001", "poi_name": "LAXMI ELECTRONICS", "latitude": 28.7931703, "longitude": 76.1391283, "radius_meters": 500, "linked_vehicle": null, "linked_gps_time": null, "linked_distance_m": null, "city": "Bhiwani", "address": "Jwali roadBadhraBhiwani", "pin_code": "127308", "state": "", "type": "tertiary", "poi_category": "general"}, {"id": 2106, "client_id": "CLIENT_001", "poi_name": "HAIER WH 2 PATAUI", "latitude": 28.4646148, "longitude": 77.0299194, "radius_meters": 1500, "linked_vehicle": null, "linked_gps_time": null, "linked_distance_m": null, "city": "Pataudi", "address": "Khasra No. 114/19/1# 19/2# 20/1# 21/2#22/1 Village Pataudi", "pin_code": "122503", "state": "HARYANA", "type": "secondary", "poi_category": "electronics"}, {"id": 2107, "client_id": "CLIENT_001", "poi_name": "RAGHAV TRADING CO (JIND)", "latitude": 29.3152073, "longitude": 76.314082, "radius_meters": 500, "linked_vehicle": null, "linked_gps_time": null, "linked_distance_m": null, "city": "Jind", "address": "GODOWN NO 1 2 AARA ROAD# BEHIND SKS FARMS", "pin_code": "126102", "state": "", "type": "tertiary", "poi_category": "general"}, {"id": 2108, "client_id": "CLIENT_001", "poi_name": "Reliance Retail Ltd. (SJ93)", "latitude": 28.4646148, "longitude": 77.0299194, "radius_meters": 500, "linked_vehicle": null, "linked_gps_time": null, "linked_distance_m": null, "city": "Gurugram", "address": "Distribution Centre# Block I# Embassy Industrial Park#", "pin_code": "122506", "state": "Haryana", "type": "tertiary", "poi_category": "general"}, {"id": 2109, "client_id": "CLIENT_001", "poi_name": "RAMA ENTERPRISES", "latitude": 29.6063041, "longitude": 74.9036568, "radius_meters": 500, "linked_vehicle": null, "linked_gps_time": null, "linked_distance_m": null, "city": "Sirsa", "address": "RAMA ENTERPRISES SIRSA", "pin_code": "125055", "state": "", "type": "tertiary", "poi_category": "general"}, {"id": 2110, "client_id": "CLIENT_001", "poi_name": "SHAKTI ENTERPRISES", "latitude": 29.1155934, "longitude": 75.1835578, "radius_meters": 500, "linked_vehicle": null, "linked_gps_time": null, "linked_distance_m": null, "city": "Hisar", "address": "RORI BAJAAR", "pin_code": "125055", "state": "", "type": "tertiary", "poi_category": "general"}, {"id": 2112, "client_id": "CLIENT_001", "poi_name": "SHREE JEE ELECTRONICS", "latitude": 28.9010899, "longitude": 76.5801935, "radius_meters": 500, "linked_vehicle": null, "linked_gps_time": null, "linked_distance_m": null, "city": "Rohtak", "address": "9 PALIKA BAZAR", "pin_code": "124001", "state": "", "type": "tertiary", "poi_category": "general"}, {"id": 2113, "client_id": "CLIENT_001", "poi_name": "SAJJAN ELECTRONICS", "latitude": 28.9953758, "longitude": 77.0233627, "radius_meters": 500, "linked_vehicle": null, "linked_gps_time": null, "linked_distance_m": null, "city": "Sonipat", "address": "SAMPLA ROAD KHARKHODA", "pin_code": "131402", "state": "", "type": "tertiary", "poi_category": "general"}, {"id": 2114, "client_id": "CLIENT_001", "poi_name": "DHEERAJ ENTERPRISES-CSD", "latitude": 28.4646148, "longitude": 77.0299194, "radius_meters": 500, "linked_vehicle": null, "linked_gps_time": null, "linked_distance_m": null, "city": "Gurugram", "address": "216/6# JACOBPURA# ARYA SAMAJ ROAD GURUGRAM", "pin_code": "122006", "state": "", "type": "tertiary", "poi_category": "general"}, {"id": 2115, "client_id": "CLIENT_001", "poi_name": "BINDRA T.V. AND ELECTRICALS", "latitude": 30.28579, "longitude": 76.9472949, "radius_meters": 500, "linked_vehicle": null, "linked_gps_time": null, "linked_distance_m": null, "city": "Ambala", "address": "VILLAGE SAHA# PO BITTA AMBALA", "pin_code": "133104", "state": "", "type": "tertiary", "poi_category": "general"}, {"id": 2116, "client_id": "CLIENT_001", "poi_name": "MITTAL SAFE COMPANY", "latitude": 29.9988844, "longitude": 76.5582773, "radius_meters": 500, "linked_vehicle": null, "linked_gps_time": null, "linked_distance_m": null, "city": "Pehowa", "address": "ALL FLOOR# BUILDING NO- 1#2 MITTAL COMPLEX# BABA DALIP SINGH MARG", "pin_code": "136128", "state": "", "type": "tertiary", "poi_category": "general"}, {"id": 2117, "client_id": "CLIENT_001", "poi_name": "HOUSE OF KIERAYA LIMITED-HAR", "latitude": 28.4646148, "longitude": 77.0299194, "radius_meters": 500, "linked_vehicle": null, "linked_gps_time": null, "linked_distance_m": null, "city": "Gurugram", "address": "Khasra No-55//4/2#6#7#15#56//9/1 min#10#11/1 Alipur# Gurugram", "pin_code": "122102", "state": "", "type": "tertiary", "poi_category": "general"},